unitid,name,state,zip,city,longitude,latitude
457590,A & W Healthcare Educators,LA,70126,New Orleans,-90.011931,30.0275
177834,A T Still University of Health Sciences,MO,63501,Kirksville,-92.589183,40.193648
436526,A.B.I. School of Barbering & Cosmetology of Chelsea Inc.,NY,10001-5271,New York,-73.99538,40.7487
180203,Aaniiih Nakoda College,MT,59526,Harlem,-108.78364,48.53309
161615,Aaron's Academy of Beauty,MD,20602,Waldorf,-76.901993,38.611356
459523,ABC Beauty Academy,TX,75042,Garland,-96.684271,32.92981
106281,ABC Beauty College Inc,AR,71923,Arkadelphia,-93.080831,34.12018
461892,Abcott Institute,MI,48075-5227,Southfield,-83.210611,42.44639
208123,Abdill Career College Inc,OR,97504-7137,Medford,-122.863924,42.328085
222178,Abilene Christian University,TX,79699,Abilene,-99.70954,32.46915
210456,Abington Memorial Hospital Dixon School of Nursing,PA,19090-1284,Willow Grove,-75.130073,40.161091
138558,Abraham Baldwin Agricultural College,GA,31793-2601,Tifton,-83.528281,31.481889
480444,Abraham Lincoln University,CA,90010,Los Angeles,-118.301191,34.06103
172866,Academy College,MN,55420-1554,Minneapolis,-93.259384,44.861452
449463,Academy Di Capelli-School of Cosmetology,CT,6492,Wallingford,-72.806897,41.489905
476957,Academy di Firenze,ID,83338-2329,Jerome,-114.519356,42.724061
457989,Academy for Careers and Technology,SC,29574-6009,Mullins,-79.338778,34.187704
451079,Academy for Five Element Acupuncture,FL,32601,Gainesville,-82.321994,29.650075
457271,Academy for Jewish Religion-California,CA,90010,Los Angeles,-118.293251,34.06107
412173,Academy for Nursing and Health Occupations,FL,33417,West Palm Beach,-80.121497,26.70653
462062,Academy for Salon Professionals,CA,91304-2305,Canoga Park,-118.605351,34.2221
461980,Academy for Salon Professionals,CA,95050-4057,Santa Clara,-121.963421,37.35176
461616,Academy of Aesthetic Arts,KS,66203-3502,Shawnee,-94.706671,39.01583
108232,Academy of Art University,CA,94105,San Francisco,-122.400686,37.787748
451097,Academy of Career Training,FL,34741,Kissimmee,-81.439569,28.306092
237729,Academy of Careers and Technology,WV,25801,Beckley,-81.168609,37.799775
108269,Academy of Chinese Culture and Health Sciences,CA,94612,Oakland,-122.272733,37.806662
372462,Academy of Cosmetology,FL,32953,Merritt Island,-80.70372,28.394053
459569,Academy of Cosmetology,WA,99354-3404,Richland,-119.276251,46.28844
449852,Academy of Cosmetology,WI,53548-3307,Janesville,-89.048961,42.679705
179991,Academy of Cosmetology,MT,59715-3544,Bozeman,-111.039768,45.680504
457855,Academy of Cosmetology and Esthetics NYC,NY,10306,Staten Island,-74.114451,40.57328
475635,Academy of Couture Art,CA,90211,Beverly Hills,-118.375621,34.0645
454722,Academy of Esthetics and Cosmetology,CA,91340-3212,San Fernando,-118.444038,34.284868
434283,Academy of Hair Design-Beaumont,TX,77701-4650,Beaumont,-94.121696,30.068432
175722,Academy of Hair Design-Grenada,MS,38901,Grenada,-89.80501,33.751546
374316,Academy of Hair Design-Jackson,MS,39204,Jackson,-90.210517,32.282646
447449,Academy of Hair Design-Jasper,TX,75951,Jasper,-94.006928,30.908202
181880,Academy of Hair Design-Las Vegas,NV,89146,Las Vegas,-115.191801,36.160105
434274,Academy of Hair Design-Lufkin,TX,75904,Lufkin,-94.718537,31.331837
455929,Academy of Hair Design-Oklahoma City,OK,73120,Oklahoma City,-97.564828,35.349359
382461,Academy of Hair Design-Pearl,MS,39208,Pearl,-90.115129,32.281983
208080,Academy of Hair Design-Salem,OR,97301,Salem,-123.039591,44.941673
451334,Academy of Hair Design-Springfield,MO,65804,Springfield,-93.263613,37.179756
376446,Academy of Hair Technology,SC,29615-2363,Greenville,-82.330849,34.87267
136048,Academy of Healing Arts Massage & Facial Skin Care,FL,33463-2113,Lake Worth,-80.113108,26.631072
482185,Academy of Interactive Entertainment,WA,98109-4623,Seattle,-122.349551,47.62149
451051,Academy of Massage and Bodywork,DE,19701,Bear,-75.667515,39.628597
437501,Academy of Massage Therapy,NJ,7601,Hackensack,-74.040623,40.888721
449454,Academy of Natural Therapy Inc,CO,80631-9441,Greeley,-104.668812,40.425601
107293,Academy of Salon and Spa,AR,72901,Fort Smith,-94.416327,35.380891
480879,Academy of Salon Professionals,MO,65301,Sedalia,-93.251036,38.691176
410034,Academy of Somatic Healing Arts,GA,30092,Norcross,-84.248091,33.96156
210508,Academy of Vocal Arts,PA,19103-6685,Philadelphia,-75.173683,39.947863
159443,Acadiana Technical College-Lafayette Campus,LA,70506-4909,Lafayette,-92.050933,30.218616
461342,Acaydia School of Aesthetics,UT,84601-0000,Provo,-111.658171,40.23479
476504,Access Careers,NY,11201-5826,Brooklyn,-73.984101,40.68945
449676,Ace Computer Training Center,NY,11375,Forest Hills,-73.843281,40.715882
480736,Ace Cosmetology and Barber Training Center,CT,6716,Wolcott,-72.987735,41.594257
384306,Acupuncture and Integrative Medicine College-Berkeley,CA,94704,Berkeley,-122.267636,37.862754
439969,Acupuncture and Massage College,FL,33176,Miami,-80.3645,25.68625
126182,Adams State University,CO,81101,Alamosa,-105.880943,37.477238
188429,Adelphi University,NY,11530-0701,Garden City,-73.653321,40.721439
419314,Adirondack Beauty School,NY,12801-0000,Glens Falls,-73.630352,43.317954
188438,Adirondack Community College,NY,12804,Queensbury,-73.655014,43.353441
374024,Adler Graduate School,MN,55423,Richfield,-93.252532,44.862865
142832,Adler School of Professional Psychology,IL,60602,Chicago,-87.628651,41.88232
168528,Adrian College,MI,49221-2575,Adrian,-84.059947,41.898449
119951,Adrian's College of Beauty Modesto,CA,95350-2381,Modesto,-120.992753,37.677778
262369,Adrian's College of Beauty Turlock,CA,95380,Turlock,-120.863441,37.492628
203030,Adult and Community Education-Hudson,OH,43211,Columbus,-82.980603,40.012851
183983,Adult and Continuing Education-BCTS,NJ,07601-6637,Hackensack,-74.033997,40.901784
400187,Advance Beauty College,CA,92843,Garden Grove,-117.952584,33.759869
479974,Advance Beauty Techs Academy,CA,92583-6572,San Jacinto,-116.971478,33.795354
444334,Advance Science Institute,FL,33012,Hialeah,-80.306989,25.855598
437608,Advanced Barber College and Hair Design,TX,78596,Weslaco,-97.958247,26.131543
458052,Advanced Beauty College,TX,75038,Irving,-96.992096,32.860038
480019,Advanced Career Institute,CA,93291,Visalia,-119.385566,36.344315
444343,Advanced College,CA,90280,South Gate,-118.15794,33.915383
461786,Advanced College of Cosmetology,WI,53963-0000,Waupun,-88.736121,43.63283
481234,Advanced Computing Institute,CA,90010-3911,Los Angeles,-118.299794,34.061698
238166,Advanced Institute of Hair Design-Glendale,WI,53217,Glendale,-87.916376,43.12092
467809,Advanced Institute of Hair Design-Madison,WI,53715-1030,Madison,-89.398944,43.072648
383172,Advanced Technical Centers,FL,33166,Miami,-80.2871,25.806645
231411,Advanced Technology Institute,VA,23462,Virginia Beach,-76.182939,36.841029
444361,Advanced Training Associates,CA,92020,El Cajon,-116.981366,32.819524
461430,Advanced Training Institute,NV,89118-1519,Las Vegas,-115.206821,36.09589
456001,Advanced Welding Institute,VT,5403,South Burlington,-73.139437,44.45588
133872,Adventist University of Health Sciences,FL,32803,Orlando,-81.367687,28.576142
205391,Advertising Art Educational Services DBA School of Advertising Art,OH,45440,Kettering,-84.134435,39.680848
429012,Aerosim Flight Academy,FL,32773,Sanford,-81.251501,28.77858
476878,Aesthetic Science Institute,NY,12110-1095,Latham,-73.822507,42.771428
161651,Aesthetics Institute of Cosmetology,MD,20877,Gaithersburg,-77.205935,39.151043
138600,Agnes Scott College,GA,30030-3797,Decatur,-84.29563,33.769996
134811,AI Miami International University of Art and Design,FL,33132-1418,Miami,-80.18839,25.790008
152822,AIB College of Business,IA,50321-1799,Des Moines,-93.645694,41.561953
457998,Aiken School of Cosmetology,SC,29801,Aiken,-81.717081,33.5595
217615,Aiken Technical College,SC,29829,Graniteville,-81.842423,33.533633
419147,Ailano School of Cosmetology,MA,02301-5734,Brockton,-71.043484,42.071117
126207,Aims Community College,CO,80632,Greeley,-104.764335,40.409037
200697,Air Force Institute of Technology-Graduate School of Engineering & Management,OH,45433-7765,Wright-Patterson AFB,-84.087246,39.780663
200785,Akron Institute of Herzing University,OH,44306-3931,Akron,-81.493109,41.02817
200828,Akron School of Practical Nursing,OH,44320-1736,Akron,-81.514573,41.066218
100654,Alabama A & M University,AL,35762,Normal,-86.568502,34.783368
101949,Alabama Southern Community College,AL,36460,Monroeville,-87.326352,31.488925
371034,Alabama State College of Barber Styling,AL,35071,Gardendale,-86.809871,33.64351
100724,Alabama State University,AL,36104-0271,Montgomery,-86.295677,32.364317
199786,Alamance Community College,NC,27253-8000,Graham,-79.357657,36.066683
222497,Alamo Community College District Central Office,TX,78204-1429,San Antonio,-98.497558,29.415713
102580,Alaska Bible College,AK,99645,Palmer,-149.111341,61.59843
103501,Alaska Career College,AK,99507-1033,Anchorage,-149.856954,61.181443
442523,Alaska Christian College,AK,99669,Soldotna,-151.136005,60.490459
102669,Alaska Pacific University,AK,99508,Anchorage,-149.804242,61.191235
418038,Albany BOCES-Adult Practical Nursing Program,NY,12205,Albany,-73.836922,42.74311
188526,Albany College of Pharmacy and Health Sciences,NY,12208-3492,Albany,-73.778132,42.652559
188535,Albany Law School,NY,12208,Albany,-73.777692,42.651264
188580,Albany Medical College,NY,12208-3479,Albany,-73.773975,42.653178
138716,Albany State University,GA,31705,Albany,-84.14306,31.571395
138682,Albany Technical College,GA,31701,Albany,-84.174284,31.55434
417178,Albert I Prince Technical High School,CT,6106,Hartford,-72.705991,41.74174
128498,Albertus Magnus College,CT,06511-1189,New Haven,-72.923848,41.332519
168546,Albion College,MI,49224,Albion,-84.746088,42.244603
210571,Albright College,PA,19612-5234,Reading,-75.910152,40.360248
175342,Alcorn State University,MS,39096-7500,Alcorn State,-91.142854,31.877216
237118,Alderson Broaddus University,WV,26416-2035,Philippi,-80.047728,39.158067
181145,Alegent Creighton Health School of Radiologic Technology,NE,68124,Omaha,-96.019738,41.321951
476735,Alexander Academy,MA,01420-0000,Fitchburg,-71.812241,42.58544
368036,Alexandria School of Scientific Therapeutics,IN,46001-0287,Alexandria,-85.674191,40.255464
172918,Alexandria Technical & Community College,MN,56308,Alexandria,-95.371579,45.868592
188641,Alfred University,NY,14802-1205,Alfred,-77.788625,42.255866
393524,Alhambra Beauty College,CA,91801,Alhambra,-118.129041,34.093916
156189,Alice Lloyd College,KY,41844,Pippa Passes,-82.875068,37.335087
459125,All Beauty College,AZ,86426-8326,Fort Mohave,-114.59783,35.02068
474997,All-State Career School-Allied Health Campus,PA,19029,Essington,-75.301209,39.866518
210599,All-State Career School-Lester,PA,19029,Lester,-75.280691,39.868236
418658,All-State Career School-Pittsburgh,PA,15122,West Mifflin,-79.828242,40.396915
373784,All-State Career-Baltimore,MD,21224,Baltimore,-76.544942,39.264664
108807,Allan Hancock College,CA,93454-6399,Santa Maria,-120.421486,34.942979
161688,Allegany College of Maryland,MD,21502-2596,Cumberland,-78.729766,39.652658
210669,Allegheny College,PA,16335-3902,Meadville,-80.146922,41.648068
200873,Allegheny Wesleyan College,OH,44460-9598,Salem,-80.860091,40.867236
152798,Allen College,IA,50703-1999,Waterloo,-92.338018,42.531427
154642,Allen County Community College,KS,66749,Iola,-95.39681,37.937698
188650,Allen School-Brooklyn,NY,11201,Brooklyn,-73.991546,40.693797
415987,Allen School-Jamaica,NY,11432,Jamaica,-73.796295,40.704694
469610,Allen School-Phoenix,AZ,85053-4064,Phoenix,-112.117361,33.62946
217624,Allen University,SC,29204,Columbia,-81.020045,34.010348
110468,Alliant International University,CA,92131-1799,San Diego,-117.094398,32.897056
460729,Allied American University,CA,92653-1337,Laguna Hills,-117.729351,33.62311
367316,Allied Health Careers,TX,78735,Austin,-97.839328,30.237691
454883,Allied Health Institute,FL,33317,Plantation,-80.202291,26.11946
461111,Allstate Hairstyling & Barber College,OH,44113-3413,Cleveland,-81.704251,41.48396
168591,Alma College,MI,48801-1599,Alma,-84.670073,43.379236
168607,Alpena Community College,MI,49707,Alpena,-83.445069,45.081647
366447,Altamaha Technical College,GA,31545,Jesup,-81.910117,31.621824
210748,Altoona Beauty School Inc,PA,16602-6039,Altoona,-78.387327,40.501789
447254,Alvareitas College of Cosmetology-Belleville,IL,62226,Belleville,-90.032984,38.545956
142869,Alvareitas College of Cosmetology-Edwardsville,IL,62025,Edwardsville,-89.953398,38.80781
142878,Alvareitas College of Cosmetology-Godfrey,IL,62035-4150,Godfrey,-90.191309,38.927728
210775,Alvernia University,PA,19607-1799,Reading,-75.938163,40.3102
238193,Alverno College,WI,53234-3922,Milwaukee,-87.965498,42.983518
222567,Alvin Community College,TX,77511-4898,Alvin,-95.241078,29.396581
222576,Amarillo College,TX,79109,Amarillo,-101.847104,35.18841
222628,Amberton University,TX,75041-5595,Garland,-96.653028,32.859937
476771,Ambiance Beauty & Barber Academy Inc,FL,32935-8771,Melbourne,-80.672661,28.117735
457527,Ambria College of Nursing,IL,60192,Hoffman Estates,-88.210124,42.078918
420194,Amerian National College,TX,77069-4611,Houston,-95.506291,29.984721
188687,American Academy McAllister Institute of Funeral Service,NY,10019,New York,-73.993782,40.769031
446002,American Academy of Acupuncture and Oriental Medicine,MN,55113,Roseville,-93.181424,45.015783
142887,American Academy of Art,IL,60604-4302,Chicago,-87.624396,41.877824
457396,American Academy of Cosmetology,FL,32065,Orange Park,-81.798731,30.12368
108852,American Academy of Dramatic Arts-Los Angeles,CA,90028,Los Angeles,-118.344097,34.095315
188678,American Academy of Dramatic Arts-New York,NY,10016,New York,-73.984843,40.745545
481164,American Academy of Personal Training,NY,10011-7301,New York,-73.998971,40.73785
444370,American Advanced Technicians Institute,FL,33014,Hialeah,-80.323025,25.884901
393649,American Auto Institute,CA,90247,Gardena,-118.287321,33.89328
219505,American Baptist College,TN,37207-9980,Nashville,-86.789301,36.201155
108861,American Baptist Seminary of the West,CA,94704-3029,Berkeley,-122.256149,37.865252
431637,American Beauty Academy,MD,20902-1911,Wheaton,-77.0519,39.035463
459541,American Beauty Academy,UT,84651,Payson,-111.733777,40.042943
108977,American Beauty College,CA,91790,West Covina,-118.125036,33.884391
365453,American Beauty Institute,OK,74501,McAlester,-95.764739,34.947809
189477,American Beauty School,NY,10462,Bronx,-73.86071,40.835231
441195,American Broadcasting School-Arlington,TX,76011,Arlington,-97.061973,32.753208
206783,American Broadcasting School-Oklahoma City,OK,73115,Oklahoma City,-97.436129,35.43527
475255,American Broadcasting School-Online Program,OK,73115,Oklahoma City,-97.436906,35.435309
457688,American Business and Technology University,MO,64506,St Joseph,-94.819981,39.77909
439905,American Career College at St Francis,CA,90262,Lynwood,-118.201182,33.931919
441052,American Career College-Anaheim,CA,92801-0000,Anaheim,-117.975644,33.849876
481854,American Career College-Long Beach,CA,90802-3174,Long Beach,-118.190351,33.770448
109040,American Career College-Los Angeles,CA,90004,Los Angeles,-118.292282,34.079236
447768,American Career College-Ontario,CA,91764,Ontario,-117.583814,34.068204
429085,American College of Acupuncture and Oriental Med,TX,77063-4104,Houston,-95.524522,29.735747
449889,American College of Education,IN,46204,Indianapolis,-86.160221,39.7697
210809,American College of Financial Services,PA,19010-2196,Bryn Mawr,-75.326655,40.018084
179229,American College of Hair Design Inc,MO,65301,Sedalia,-93.253073,38.699237
153092,American College of Hairstyling-Cedar Rapids,IA,52402,Cedar Rapids,-91.733905,41.967378
153588,American College of Hairstyling-Des Moines,IA,50309,Des Moines,-93.610649,41.592188
422835,American College of Healthcare,CA,92505,Riverside,-117.493808,33.900487
483009,American College of Healthcare,CA,90255,Huntington Park,-118.225131,33.979159
443599,American College of Healthcare Sciences,OR,97239,Portland,-122.674511,45.48044
430591,American College of Traditional Chinese Medicine,CA,94107,San Francisco,-122.398242,37.760503
222691,American Commercial College-Abilene,TX,79602,Abilene,-99.737428,32.445192
222707,American Commercial College-Odessa,TX,79762,Odessa,-102.345289,31.862589
222673,American Commercial College-San Angelo,TX,76904,San Angelo,-100.463769,31.422734
423582,American Commercial College-Wichita Falls,TX,76310,Wichita Falls,-98.577073,33.86988
109086,American Conservatory Theater,CA,94108-5834,San Francisco,-122.404945,37.787326
108870,American Film Institute Conservatory,CA,90027-1625,Los Angeles,-118.309989,34.10846
153463,American Hair Academy,IA,52627,Fort Madison,-91.314095,40.630777
461670,American Health Institute,FL,34654-3743,Port Richey,-82.702554,28.304582
103787,American Indian College of the Assemblies of God Inc,AZ,85021,Phoenix,-112.092247,33.577738
172927,American Indian OIC Inc,MN,55404-2221,Minneapolis,-93.246166,44.961993
461005,American Institute,FL,34747-5161,Celebration,-81.562971,28.31233
441636,American Institute of Alternative Medicine,OH,43229,Columbus,-82.988733,40.102442
447883,American Institute of Beauty,FL,33771,Largo,-82.749094,27.915072
404037,American Institute of Interior Design,AZ,85268,Fountain Hills,-111.715081,33.60485
447795,American Institute of Massage Therapy,CA,92705-5479,Santa Ana,-117.85027,33.715851
455202,American Institute of Medical Sciences & Education,NJ,8854,Piscataway,-74.437321,40.56122
476638,American Institute of Medical Sonography,NV,89146-0383,Las Vegas,-115.216191,36.14552
449728,American Institute of Medical Technology,OK,74146,Tulsa,-95.923639,36.061988
103811,American Institute of Technology,AZ,85043-4729,Phoenix,-112.175304,33.442262
443234,American Institute-Margate,FL,33063,Margate,-80.194529,26.244554
482963,American Institute-Toms River,NJ,8755,Toms River,-74.220531,40.04455
438586,American InterContinental University-Atlanta,GA,30328,Atlanta,-84.355243,33.936128
445133,American InterContinental University-Houston,TX,77042,Houston,-95.548309,29.728221
445027,American InterContinental University-Online,IL,60173,Schaumburg,-88.032431,42.03444
438601,American InterContinental University-South Florida,FL,33326,Weston,-80.367098,26.089678
164447,American International College,MA,1109,Springfield,-72.558507,42.112708
116846,American Jewish University,CA,90077-1519,Los Angeles,-118.471764,34.128099
475714,American Medical Academy,FL,33186-4830,Miami,-80.393892,25.661946
461263,American Medical Sciences Center,CA,91204-5108,Glendale,-118.257021,34.14709
188854,American Musical and Dramatic Academy,NY,10023,New York,-73.982249,40.780142
376987,American National College,TX,77587-3714,South Houston,-95.211036,29.665461
232797,American National University,VA,24153,Salem,-80.023597,37.299714
449339,American Public University System,WV,25414,Charles Town,-77.859781,39.288383
109208,American River College,CA,95841-4286,Sacramento,-121.346012,38.649734
158158,American School of Business,LA,71105-5646,Shreveport,-93.724963,32.414975
203225,American School of Technology,OH,43229,Columbus,-82.971349,40.061194
460738,American Sentinel University,CO,80014-6510,Aurora,-104.831161,39.67661
461573,American Trade School,MO,63074-1807,Saint Ann,-90.380171,38.72877
131159,American University,DC,20016-8001,Washington,-77.090106,38.937802
433004,American University of Health Sciences,CA,90755-3612,Signal Hill,-118.171442,33.797115
447263,AmeriTech College-Draper,UT,84020-6545,Draper,-111.892792,40.527932
229957,AmeriTech College-Provo,UT,84604,Provo,-111.66803,40.26136
164465,Amherst College,MA,01002-5000,Amherst,-72.518493,42.372459
100690,Amridge University,AL,36117-3553,Montgomery,-86.17401,32.362609
151865,Anabaptist Mennonite Biblical Seminary,IN,46517-1999,Elkhart,-85.972222,41.656093
444389,Anamarc College-El Paso Central,TX,79930,El Paso,-106.444175,31.805355
480152,Anamarc College-El Paso East,TX,79936,El Paso,-106.314491,31.729328
459815,Anamarc College-Santa Teresa,NM,88008,Santa Teresa,-106.691911,31.86348
150048,Ancilla College,IN,46513-0001,Donaldson,-86.445448,41.337978
150066,Anderson University,IN,46012-3495,Anderson,-85.662292,40.112167
217633,Anderson University,SC,29621-4035,Anderson,-82.640205,34.515506
164474,Andover Newton Theological School,MA,02459-2243,Newton Centre,-71.189586,42.324729
138761,Andrew College,GA,39840-5550,Cuthbert,-84.795021,31.772321
168740,Andrews University,MI,49104,Berrien Springs,-86.355149,41.963266
457299,Angeles College,CA,90010,Los Angeles,-118.299641,34.06071
457314,Angeles Institute,CA,90701-6610,ARTESIA,-118.08488,33.858399
222822,Angelina College,TX,75902-1768,Lufkin,-94.73163,31.28736
222831,Angelo State University,TX,76909,San Angelo,-100.466495,31.44145
410256,Ann Arbor Institute of Massage Therapy,MI,48103,Ann Arbor,-83.802231,42.282594
455248,Ann Marie's World of Beauty School,NY,13901,Binghamton,-75.908079,42.107798
164492,Anna Maria College,MA,01612-1198,Paxton,-71.918961,42.33055
161767,Anne Arundel Community College,MD,21012-1895,Arnold,-76.512223,39.049813
475705,Annenberg School of Nursing,CA,91335-5426,Reseda,-118.553921,34.20069
172954,Anoka Technical College,MN,55303,Anoka,-93.415955,45.216331
172963,Anoka-Ramsey Community College,MN,55433-3470,Coon Rapids,-93.351697,45.172978
109350,Antelope Valley College,CA,93536-5426,Lancaster,-118.186166,34.676207
445601,Anthem Career College-Memphis,TN,38134,Memphis,-89.867134,35.166982
440110,Anthem Career College-Nashville,TN,37214,Nashville,-86.67185,36.146211
460668,Anthem College-Atlanta,GA,30324,Atlanta,-84.367671,33.82301
450155,Anthem College-Brookfield,WI,53005,Brookfield,-88.113686,43.026883
410539,Anthem College-Denver,CO,80011,Aurora,-104.823079,39.721243
443739,Anthem College-Fenton,MO,63026,Fenton,-90.435869,38.508985
440129,Anthem College-Irving,TX,75038,Irving,-96.991122,32.870783
445610,Anthem College-Kansas City,MO,64114,Kansas City,-94.607614,38.96611
176549,Anthem College-Maryland Heights,MO,63042,Maryland Heights,-90.465195,38.755197
430050,Anthem College-Minnesota,MN,55416,Saint Louis Park,-93.345362,44.964711
436225,Anthem College-Orlando,FL,32803,Orlando,-81.336595,28.559179
104805,Anthem College-Phoenix,AZ,85014,Phoenix,-112.050186,33.494316
446853,Anthem College-Portland,OR,97005,Beaverton,-122.806602,45.489836
413635,Anthem College-Sacramento,CA,95827,Sacramento,-121.334159,38.561345
442462,Anthem Institute-Cherry Hill,NJ,8002,Cherry Hill,-75.020854,39.941621
249140,Anthem Institute-Jersey City,NJ,7306,Jersey City,-74.086457,40.708766
442648,Anthem Institute-Las Vegas,NV,89102,Las Vegas,-115.171318,36.145587
445577,Anthem Institute-North Brunswick,NJ,8902,North Brunswick,-74.444265,40.467138
184047,Anthem Institute-Parsippany,NJ,07054-3897,Parsippany,-74.381367,40.861433
213312,Anthem Institute-Springfield,PA,19064,Springfield,-75.353626,39.938415
483018,Antioch College,OH,45387,Yellow Springs,-83.889852,39.800313
245838,Antioch University-Los Angeles,CA,90230-7615,Culver City,-118.384651,33.98764
245892,Antioch University-Midwest,OH,45387,Yellow Springs,-83.892094,39.795828
245865,Antioch University-New England,NH,3431,Keene,-72.293798,42.932344
442392,Antioch University-PhD Program in Leadership and Change,OH,45387,Yellow Springs,-83.908261,39.80278
245847,Antioch University-Santa Barbara,CA,93101,Santa Barbara,-119.695655,34.418961
245883,Antioch University-Seattle,WA,98121-1814,Seattle,-122.342647,47.61696
440138,Antioch University-System Administration,OH,45387,Yellow Springs,-83.908261,39.80278
201016,Antonelli College-Cincinnati,OH,45202,Cincinnati,-84.510764,39.103991
383950,Antonelli College-Hattiesburg,MS,39401,Hattiesburg,-89.335692,31.349549
175528,Antonelli College-Jackson,MS,39232,Jackson,-90.12297,32.328918
210890,Antonelli Institute,PA,19038-8242,Erdenheim,-75.20905,40.09077
250072,Antonelli Medical and Professional Institute,PA,19464,Pottstown,-75.617411,40.2347
429094,AOMA Graduate School of Integrative Medicine,TX,78745,Austin,-97.800641,30.22862
150075,Apex Academy of Hair Design Inc,IN,46016-1158,Anderson,-85.680769,40.112113
441511,Apex School of Theology,NC,27703,Durham,-78.841041,35.92314
188890,Apex Technical School,NY,11101,Long Island City,-73.941511,40.75042
201034,Apollo Career Center,OH,45806-1497,Lima,-84.14971,40.69222
172972,Apostolic Bible Institute Inc,MN,55128-7021,Saint Paul,-92.965482,44.949336
237127,Appalachian Beauty School,KY,41503,South Williamson,-82.295552,37.672192
237136,Appalachian Bible College,WV,25880,Mount Hope,-81.20115,37.853339
449922,Appalachian College of Pharmacy,VA,24631,Oakwood,-82.005227,37.211496
432348,Appalachian School of Law,VA,24614-2825,Grundy,-82.096426,37.278007
197869,Appalachian State University,NC,28608,Boone,-81.680234,36.214844
417716,Applied Technology Services,MO,63127,Sunset Hills,-90.293882,38.778863
168786,Aquinas College,MI,49506-1799,Grand Rapids,-85.626166,42.960449
219578,Aquinas College,TN,37205,Nashville,-86.844214,36.132187
176600,Aquinas Institute of Theology,MO,63108-3323,Saint Louis,-90.237365,38.635008
126289,Arapahoe Community College,CO,80160-9002,Littleton,-105.018631,39.607505
211088,Arcadia University,PA,19038-3295,Glenside,-75.165205,40.091941
367936,Argosy University-Atlanta,GA,30328,Atlanta,-84.356001,33.92006
145770,Argosy University-Chicago,IL,60601,Chicago,-87.623772,41.886006
442222,Argosy University-Dallas,TX,75244,Farmers Branch,-96.823046,32.926742
448734,Argosy University-Denver,CO,80231,Denver,-104.901591,39.65617
366748,Argosy University-Hawaii,HI,96813,Honolulu,-157.860916,21.308026
450526,Argosy University-Inland Empire,CA,91761,Ontario,-117.578381,34.06646
447272,Argosy University-Los Angeles,CA,90045,Los Angeles,-118.373038,33.927857
450535,Argosy University-Nashville,TN,37214,Nashville,-86.634674,36.154664
436438,Argosy University-Orange County,CA,92868,Orange,-117.897468,33.779113
436094,Argosy University-Phoenix,AZ,85021,Phoenix,-112.107455,33.5669
456348,Argosy University-Phoenix Online Division,AZ,85021,Phoenix,-112.107494,33.566817
452090,Argosy University-Salt Lake City,UT,84020,Draper,-111.895536,40.534344
450544,Argosy University-San Diego,CA,92108,San Diego,-117.158047,32.775512
121983,Argosy University-San Francisco Bay Area,CA,94501,Alameda,-122.267523,37.781238
137148,Argosy University-Sarasota,FL,34235,Sarasota,-82.465363,27.351394
420866,Argosy University-Schaumburg,IL,60173-5403,Schaumburg,-88.042083,42.046739
439057,Argosy University-Seattle,WA,98121,Seattle,-122.351734,47.613924
428268,Argosy University-Tampa,FL,33607,Tampa,-82.482545,27.955166
173984,Argosy University-Twin Cities,MN,55121,Eagan,-93.173871,44.837284
419457,Argosy University-Washington DC,VA,22209,Arlington,-77.075927,38.894272
212568,Aria Health School of Nursing,PA,19053-6939,Trevose,-74.978275,40.125175
103954,Arizona Academy of Beauty-East,AZ,85712,Tucson,-110.872305,32.237253
262235,Arizona Academy of Beauty-North,AZ,85705,Tucson,-110.978064,32.28066
103963,Arizona Automotive Institute,AZ,85301-3579,Glendale,-112.157344,33.537249
420802,Arizona Board of Regents,AZ,85004,Phoenix,-112.073908,33.470136
105899,Arizona Christian University,AZ,85032-7097,Phoenix,-112.026211,33.595117
421708,Arizona College-Glendale,AZ,85302,Glendale,-112.154247,33.567495
482990,Arizona College-Mesa,AZ,85201,Mesa,-111.874332,33.418529
450951,Arizona Culinary Institute,AZ,85259,Scottsdale,-111.831237,33.581935
446039,Arizona School of Acupuncture and Oriental Medicine,AZ,85712,Tucson,-110.893387,32.261305
448886,Arizona State University-Downtown Phoenix,AZ,85004,Phoenix,-112.073221,33.45343
420574,Arizona State University-Polytechnic,AZ,85212,Mesa,-111.682585,33.307095
483124,Arizona State University-Skysong,AZ,85257,Scottsdale,-111.924051,33.46268
104151,Arizona State University-Tempe,AZ,85287,Tempe,-111.940011,33.421922
407009,Arizona State University-West,AZ,85306,Glendale,-112.160021,33.60726
450942,Arizona Summit Law School,AZ,85004,Phoenix,-112.073152,33.44871
104160,Arizona Western College,AZ,85365-8834,Yuma,-114.495968,32.689306
106306,Arkansas Baptist College,AR,72202-6068,Little Rock,-92.290555,34.734751
106324,Arkansas Beauty College,AR,72801,Russellville,-93.13522,35.278622
371140,Arkansas Beauty School,AR,72032,Conway,-92.44029,35.093082
106315,Arkansas Beauty School,AR,72209,Little Rock,-92.334814,34.669071
106351,Arkansas College of Barbering and Hair Design,AR,72114,North Little Rock,-92.266336,34.753621
107327,Arkansas Northeastern College,AR,72316-1109,Blytheville,-89.922491,35.897362
106449,Arkansas State University-Beebe,AR,72012-1000,Beebe,-91.896165,35.074512
106458,Arkansas State University-Main Campus,AR,72401,Jonesboro,-90.680478,35.842779
420538,Arkansas State University-Mountain Home,AR,72653,Mountain Home,-92.383355,36.335336
440402,Arkansas State University-Newport,AR,72112,Newport,-91.189524,35.640328
448336,Arkansas State University-System Office,AR,72401,Jonesboro,-90.67611,35.822069
106467,Arkansas Tech University,AR,72801-2222,Russellville,-93.13233,35.295227
222877,Arlington Baptist College,TX,76012-3425,Arlington,-97.155661,32.739543
222886,Arlington Career Institute,TX,75050,Grand Prairie,-97.052772,32.77244
429100,Arlington Medical Institute,TX,76006-2317,Arlington,-97.094331,32.78542
138789,Armstrong Atlantic State University,GA,31419-1997,Savannah,-81.160409,31.978109
219587,Arnolds Beauty School,TN,38358,Milan,-88.758926,35.917765
188915,Arnot Ogden Medical Center,NY,14905-1676,Elmira,-76.828353,42.10099
482194,Arrojo Cosmetology School,NY,10014,New York,-74.004978,40.727785
201061,Art Academy of Cincinnati,OH,45202-1706,Cincinnati,-84.497573,39.108382
109651,Art Center College of Design,CA,91103,Pasadena,-118.186901,34.170844
106360,Arthur's Beauty College Inc-Fort Smith,AR,72901-3342,Fort Smith,-94.410967,35.379955
106494,Arthur's Beauty College Inc-Jacksonville,AR,72076,Jacksonville,-92.102284,34.8918
445540,Arthur's Beauty School Inc-Conway,AR,72032,Conway,-92.44599,35.109134
445531,Arthur's Beauty School Inc-Pine Bluff,AR,71601,Pine Bluff,-91.974674,34.22157
414063,Artistic Academy of Hair Design,NJ,7950,Morris Plains,-74.486405,40.855589
460701,Artistic Nails and Beauty Academy-Lakeland,FL,33801,Lakeland,-81.946581,28.05287
378886,Artistic Nails and Beauty Academy-Tampa,FL,33605,Tampa,-82.403486,27.951358
404994,ASA College,NY,11201-9805,Brooklyn,-73.986027,40.692405
156222,Asbury Theological Seminary,KY,40390-1199,Wilmore,-84.661862,37.863704
156213,Asbury University,KY,40390-1198,Wilmore,-84.662606,37.862029
461777,Ashdown College of Health Sciences,CA,92373,Redlands,-117.180651,34.05831
447777,Asher College,CA,95825,Sacramento,-121.415767,38.587784
197887,Asheville-Buncombe Technical Community College,NC,28801-4897,Asheville,-82.555838,35.571055
154022,Ashford University,IA,52733-2967,Clinton,-90.199127,41.851944
156231,Ashland Community and Technical College,KY,41101-3683,Ashland,-82.650664,38.469201
201098,Ashland County-West Holmes Career Center,OH,44805-9377,Ashland,-82.272726,40.772463
201104,Ashland University,OH,44805,Ashland,-82.320621,40.860987
201131,Ashtabula County Technical and Career Campus,OH,44047,Jefferson,-80.73451,41.745865
475431,ASI Career Institute,NJ,08012-1043,Turnersville,-75.045231,39.75546
393861,Asian American International Beauty College,CA,92683,Westminster,-117.991607,33.759311
391546,ASM Beauty World Academy,FL,33314,Davie,-80.232133,26.046048
128577,Asnuntuck Community College,CT,6082,Enfield,-72.570177,41.998409
480994,Aspen Beauty Academy of Laurel,MD,20724,Laurel,-76.822817,39.100704
454829,Aspen University,CO,80246,Denver,-104.939873,39.703696
164535,Assabet Valley Regional Technical School,MA,1752,Marlborough,-71.565261,42.36834
176619,Assemblies of God Theological Seminary,MO,65802-2131,Springfield,-93.26151,37.224401
188942,Associated Beth Rivkah Schools,NY,11225,Brooklyn,-73.950087,40.666388
109721,Associated Technical College-Los Angeles,CA,90017-1604,Los Angeles,-118.27243,34.055987
109730,Associated Technical College-San Diego,CA,92101,San Diego,-117.158203,32.715658
164562,Assumption College,MA,01609-1296,Worcester,-71.828387,42.295435
183600,Assumption College for Sisters,NJ,07945-2923,Mendham,-74.602407,40.757477
379746,Astrodome Career Centers,TX,77054,Houston,-95.420772,29.679443
446127,ATA Career Education,FL,34606,Spring Hill,-82.595681,28.45276
447935,ATA College,KY,40223,Louisville,-85.566577,38.224038
461768,Atelier Esthetique Institute of Esthetics,NY,10016-8804,New York,-73.984851,40.74306
476683,Athena Career Academy,OH,43615,Toledo,-83.66478,41.616588
201140,Athenaeum of Ohio,OH,45230-2091,Cincinnati,-84.375556,39.084199
100812,Athens State University,AL,35611,Athens,-86.96514,34.805625
246813,Athens Technical College,GA,30601,Athens,-83.339598,33.990183
249247,ATI Career Training Center-Dallas,TX,75220-4316,Dallas,-96.898111,32.857104
456913,ATI Career Training Center-Dallas,TX,75247,Dallas,-96.855902,32.812571
444325,ATI College-Norwalk,CA,90650,Norwalk,-118.068412,33.904942
450012,ATI College-Santa Ana,CA,92701,Santa Ana,-117.854818,33.762264
457730,Atlanta Beauty & Barber Academy,GA,30340,Doraville,-84.259684,33.916554
419244,Atlanta Institute of Music,GA,30096,Duluth,-84.106629,33.960266
138901,Atlanta Metropolitan State College,GA,30310-4498,Atlanta,-84.404659,33.70893
138938,Atlanta School of Massage,GA,30338,Atlanta,-84.29844,33.927829
138840,Atlanta Technical College,GA,30310-4446,Atlanta,-84.404995,33.712009
138929,Atlanta's John Marshall Law School,GA,30309,Atlanta,-84.38777,33.793388
186593,Atlantic Beauty & Spa Academy LLC,NJ,8234,Egg Harbor Township,-74.613311,39.43335
183655,Atlantic Cape Community College,NJ,08330-2699,Mays Landing,-74.682286,39.461387
439446,Atlantic Institute of Oriental Medicine,FL,33301-3510,Fort Lauderdale,-80.142235,26.121964
132374,Atlantic Technical Center,FL,33063-3902,Coconut Creek,-80.185311,26.243609
439455,ATS Institute of Technology,OH,44143,Highland Heights,-81.451108,41.547556
201159,Auburn Career Center,OH,44077,Concord Twp,-81.243798,41.649238
100858,Auburn University,AL,36849,Auburn University,-85.492409,32.600201
100830,Auburn University at Montgomery,AL,36117-3596,Montgomery,-86.177351,32.369939
173045,Augsburg College,MN,55454,Minneapolis,-93.241418,44.965636
417345,Augusta Area Dietetic Internship-University Hospital,GA,30901-2629,Augusta,-81.981962,33.472447
447917,Augusta School of Massage,GA,30809,Evans,-82.135503,33.529159
138983,Augusta State University,GA,309042200,Augusta,-82.02195,33.476464
138956,Augusta Technical College,GA,30906,Augusta,-82.048439,33.418992
143084,Augustana College,IL,61201-2296,Rock Island,-90.552402,41.500326
219000,Augustana College,SD,57197-0001,Sioux Falls,-96.738507,43.525939
444556,Auguste Escoffier School of Culinary Arts-Austin,TX,78752,Austin,-97.717872,30.32646
454810,Auguste Escoffier School of Culinary Arts-Boulder,CO,80305,Boulder,-105.250075,39.983475
201177,Aultman College of Nursing and Health Sciences,OH,44710-1797,Canton,-81.404182,40.796865
143118,Aurora University,IL,60506-4892,Aurora,-88.349469,41.754465
222983,Austin College,TX,75090-4400,Sherman,-96.598772,33.646307
222992,Austin Community College District,TX,78752,Austin,-97.68172,30.333508
247825,Austin Graduate School of Theology,TX,78752,Austin,-97.711706,30.343788
476869,Austin Kade Academy,ID,83404-5540,Idaho Falls,-112.000775,43.482822
219602,Austin Peay State University,TN,37044,Clarksville,-87.354081,36.533319
223001,Austin Presbyterian Theological Seminary,TX,78705-5797,Austin,-97.737752,30.292635
188988,Austin's School of Spa Technology,NY,12206-1513,Albany,-73.788706,42.680756
211006,Automotive Training Center-Exton,PA,19341-1310,Exton,-75.644446,40.057849
448770,Automotive Training Center-Warminster,PA,18974,Warminster,-75.073578,40.199795
365213,Autry Technology Center,OK,73703-2506,Enid,-97.89719,36.419122
457679,Avalon School of Cosmetology,MN,56187,Worthington,-95.602411,43.63189
108649,Avalon School of Cosmetology-Alameda,CA,94501,Alameda,-122.243566,37.764203
474924,Avalon School of Cosmetology-Layton,UT,84041,Layton,-112.002413,41.089208
104568,Avalon School of Cosmetology-Mesa,AZ,85210,Mesa,-111.858305,33.376583
474915,Avalon School of Cosmetology-Phoenix,AZ,85022,Phoenix,-112.068591,33.64132
393977,Avance Beauty College,CA,92154,San Diego,-117.062216,32.581402
460057,Avant Gard The School,IN,46123,Avon,-86.378261,39.75967
442295,Ave Maria School of Law,FL,34119,Naples,-81.731045,26.24209
446048,Ave Maria University,FL,34142-9505,Ave Maria,-81.441082,26.33711
451468,Aveda Fredric's Institute-Cincinnati,OH,45069,West Chester,-84.361511,39.35482
457563,Aveda Fredric's Institute-Indianapolis,IN,46250,Indianapolis,-86.064101,39.90573
159513,Aveda Institute-Baton Rouge,LA,70816-2246,Baton Rouge,-91.053805,30.425546
461652,Aveda Institute-Boise,ID,83704-4406,Boise,-116.274333,43.636369
455141,Aveda Institute-Chapel Hill,NC,27516,Chapel Hill,-79.058561,35.91245
455877,Aveda Institute-Chicago,IL,60657,Chicago,-87.645838,41.933493
455275,Aveda Institute-Columbus,OH,43201,Columbus,-83.014111,39.994537
160320,Aveda Institute-Covington,LA,70433,Covington,-90.104224,30.494047
459277,Aveda Institute-Denver,CO,80202,Denver,-104.992451,39.74516
475015,Aveda Institute-Des Moines,IA,50266,West Des Moines,-93.802636,41.561759
159522,Aveda Institute-Lafayette,LA,70503-3246,Lafayette,-92.042092,30.206168
469957,Aveda Institute-Los Angeles,CA,90024-2808,Los Angeles,-118.446531,34.06281
173744,Aveda Institute-Minneapolis,MN,55414,Minneapolis,-93.253702,44.987863
461555,Aveda Institute-New Mexico,NM,87104-1160,Albuquerque,-106.667721,35.09187
448071,Aveda Institute-New York,NY,10013,New York,-74.004832,40.725813
460862,Aveda Institute-Portland,OR,97209-3144,Portland,-122.684541,45.52484
451574,Aveda Institute-Provo,UT,84604,Provo,-111.671194,40.256715
455354,Aveda Institute-San Antonio,TX,78259-2792,San Antonio,-98.452411,29.63745
451149,Aveda Institute-South Florida,FL,33314,Davie,-80.251754,26.044426
451158,Aveda Institute-Tallahassee,FL,32304,Tallahassee,-84.319052,30.442008
476753,Aveda Institute-Tucson,AZ,85719-4876,Tucson,-110.957181,32.23279
458070,Avenue Five Institute,TX,78757,Austin,-97.727941,30.36865
219170,Avera McKennan Hospital School of Radiologic Technology,SD,57117-5045,Sioux Falls,-96.711396,43.534599
219338,Avera Sacred Heart Hospital,SD,57078-3899,Yankton,-97.407865,42.872359
231420,Averett University,VA,24541,Danville,-79.413214,36.577273
449931,Averett University-Non-Traditional Programs,VA,24541,Danville,-79.413195,36.577257
448257,Avi Career Training,VA,22066,Great Falls,-77.296726,38.974292
440059,Aviation Institute of Maintenance-Atlanta,GA,30096,Duluth,-84.147741,33.94948
427973,Aviation Institute of Maintenance-Chesapeake,VA,23320,Chesapeake,-76.26867,36.778518
441788,Aviation Institute of Maintenance-Dallas,TX,75061,Irving,-96.941501,32.8357
227748,Aviation Institute of Maintenance-Houston,TX,77061,Houston,-95.28262,29.65852
438735,Aviation Institute of Maintenance-Indianapolis,IN,46241,Indianapolis,-86.288273,39.753062
441496,Aviation Institute of Maintenance-Kansas City,MO,64129,Kansas City,-94.498289,39.049869
482255,Aviation Institute of Maintenance-Las Vegas,NV,89119,Las Vegas,-115.117621,36.08304
445762,Aviation Institute of Maintenance-Manassas,VA,20109,Manassas,-77.514851,38.79426
457411,Aviation Institute of Maintenance-Orlando,FL,32707,Casselberry,-81.335009,28.68118
250285,Aviation Institute of Maintenance-Philadelphia,PA,19114-1018,Philadelphia,-75.012888,40.072299
447847,Aviator College of Aeronautical Science and Technology,FL,34946,Fort Pierce,-80.354456,27.484379
176628,Avila University,MO,64145-1698,Kansas City,-94.591387,38.912159
102711,AVTEC-Alaska's Institute of Technology,AK,99664-0889,Seward,-149.444573,60.110727
161800,Award Beauty School,MD,21740-5610,Hagerstown,-77.720283,39.640443
158246,Ayers Career College,LA,71118,Shreveport,-93.798229,32.418291
474863,Azusa Pacific Online University,CA,91740,Glendora,-117.871451,34.11914
109785,Azusa Pacific University,CA,91702-7000,Azusa,-117.88795,34.130865
237145,B M Spurr School of Practical Nursing,WV,26038,Glen Dale,-80.753173,39.946228
164580,Babson College,MA,02457-0310,Wellesley,-71.269479,42.296529
206817,Bacone College,OK,74403-1597,Muskogee,-95.335337,35.77707
458159,Bainbridge Graduate Institute,WA,98104-2617,Seattle,-122.331251,47.60026
139010,Bainbridge State College,GA,39819,Bainbridge,-84.535049,30.899474
128586,Bais Binyomin Academy,CT,6901,Stamford,-73.534604,41.059922
476601,Bais HaMedrash and Mesivta of Baltimore,MD,21209-1613,Baltimore,-76.673981,39.37956
245777,Bais Medrash Elyon,NY,10952,Monsey,-74.06923,41.113974
449658,Bais Medrash Toras Chesed,NJ,8701,Lakewood,-74.21127,40.099704
414708,Baker College Center for Graduate Studies,MI,48507,Flint,-83.694495,42.974759
444167,Baker College of Allen Park,MI,48101,Allen Park,-83.203166,42.274542
404073,Baker College of Auburn Hills,MI,48326-2642,Auburn Hills,-83.249027,42.659868
404648,Baker College of Cadillac,MI,49601-9600,Cadillac,-85.380045,44.268014
404082,Baker College of Clinton Township,MI,48035,Clinton Township,-82.90907,42.553231
168847,Baker College of Flint,MI,48507-5508,Flint,-83.694679,42.974764
414160,Baker College of Jackson,MI,49202-1290,Jackson,-84.451226,42.278175
171298,Baker College of Muskegon,MI,49442,Muskegon,-86.196717,43.244133
168838,Baker College of Owosso,MI,48867,Owosso,-84.170882,42.987045
381617,Baker College of Port Huron,MI,48060,Port Huron,-82.469672,42.978709
154688,Baker University,KS,66006-0065,Baldwin City,-95.188231,38.777278
109819,Bakersfield College,CA,93305-1299,Bakersfield,-118.973491,35.4108
420705,Bakke Graduate University,WA,98104,Seattle,-122.328613,47.608024
414489,Baldwin Beauty School-North Austin,TX,78757-7068,Austin,-97.729196,30.365682
223056,Baldwin Beauty School-South Austin,TX,78704-4785,Austin,-97.783069,30.241667
417105,Baldwin Park Adult & Community Education,CA,91706-4221,Baldwin Park,-117.959486,34.09673
201195,Baldwin Wallace University,OH,44017-2088,Berea,-81.849112,41.373938
150136,Ball State University,IN,47306,Muncie,-85.408863,40.198942
161864,Baltimore City Community College,MD,21215-7893,Baltimore,-76.662878,39.319978
434308,Baltimore School of Massage-Linthicum,MD,21090,Linthicum,-76.672532,39.215919
469586,Baltimore School of Massage-York,PA,17402-8046,York,-76.767977,40.083883
161855,Baltimore Studio of Hair Design,MD,21201-3444,Baltimore,-76.620034,39.293472
164599,Bancroft School of Massage Therapy,MA,1604,Worcester,-71.778773,42.26931
160968,Bangor Theological Seminary,ME,44020411,Bangor,-68.793185,44.827026
189015,Bank Street College of Education,NY,10025,New York,-73.966643,40.805604
176664,Baptist Bible College,MO,65803-3498,Springfield,-93.285385,37.239731
211024,Baptist Bible College & Seminary of Pennsylvania,PA,18411-1250,Clarks Summit,-75.683551,41.496219
106546,Baptist Health Schools-Little Rock,AR,72210-2820,Little Rock,-92.40692,34.713115
223083,Baptist Health System School of Health Professions,TX,78229,San Antonio,-98.568633,29.517296
219639,Baptist Memorial College of Health Sciences,TN,38104,Memphis,-90.027501,35.138415
223117,Baptist Missionary Association Theological Seminary,TX,75766-5407,Jacksonville,-95.252385,31.976958
366793,Baptist Theological Seminary at Richmond,VA,23228,Henrico,-77.468551,37.63259
444398,Baptist University of the Americas,TX,78224-1336,San Antonio,-98.545169,29.346868
231280,Bar Palma Beauty Careers Academy,VA,24014,Roanoke,-79.968854,37.237643
483054,Barber School of Pittsburgh,PA,15220,Pittsburgh,-80.034071,40.44202
155070,Barclay College,KS,67059-0288,Haviland,-99.104027,37.620691
189088,Bard College,NY,12504-5000,Annandale-On-Hudson,-73.906243,42.021803
167792,Bard College at Simon's Rock,MA,01230-9702,Great Barrington,-73.380008,42.209241
189097,Barnard College,NY,10027-6598,New York,-73.964027,40.809137
177719,Barnes-Jewish College Goldfarb School of Nursing,MO,63110,Saint Louis,-90.260648,38.636881
457961,Barone Beauty Academy,PA,17701,Williamsport,-76.993881,41.24478
156277,Barrett and Company School of Hair Design,KY,40356-2152,Nicholasville,-84.579948,37.866379
132471,Barry University,FL,33161-6695,Miami,-80.196136,25.878865
109907,Barstow Community College,CA,92311,Barstow,-117.02523,34.871451
197911,Barton College,NC,27893-7000,Wilson,-77.913805,35.735463
154697,Barton County Community College,KS,67530,Great Bend,-98.731697,38.40331
235547,Bastyr University,WA,98028-4966,Kenmore,-122.251708,47.729935
160977,Bates College,ME,4240,Lewiston,-70.203333,44.105299
235671,Bates Technical College,WA,98405,Tacoma,-122.446412,47.251531
373447,Baton Rouge College,LA,70806,Baton Rouge,-91.118341,30.46413
437103,Baton Rouge Community College,LA,70806,Baton Rouge,-91.137935,30.448276
158334,Baton Rouge General Medical Center-Radiologic Technology,LA,70806,Baton Rouge,-91.153581,30.44787
158325,Baton Rouge General Medical Center-School of Nursing,LA,70806,Baton Rouge,-91.152773,30.449731
158343,Baton Rouge School of Computers,LA,70809,Baton Rouge,-91.070821,30.427256
139074,Bauder College,GA,30313,Atlanta,-84.399724,33.767494
168883,Bay de Noc Community College,MI,49829-2511,Escanaba,-87.080708,45.769714
380359,Bay Mills Community College,MI,49715,Brimley,-84.607089,46.454584
164632,Bay Path College,MA,1106,Longmeadow,-72.583974,42.055364
164641,Bay State College,MA,2116,Boston,-71.076956,42.351965
164678,Bay State School of Technology,MA,02021-2358,Canton,-71.113455,42.179506
223223,Baylor College of Medicine,TX,77030-3498,Houston,-95.395743,29.7106
223232,Baylor University,TX,76798,Waco,-97.119359,31.545956
168892,Bayshire Academy of Beauty Craft Inc,MI,48708-5614,Bay City,-83.889064,43.599491
476717,Be'er Yaakov Talmudic Seminary,NY,10977-1912,Spring Valley,-74.028479,41.139363
384254,Beacon College,FL,34748,Leesburg,-81.875619,28.810799
160995,Beal College,ME,4401,Bangor,-68.780752,44.785249
208248,Beau Monde College of Hair Design,OR,97205,Portland,-122.686506,45.516919
197966,Beaufort County Community College,NC,27889,Washington,-77.0425,35.573231
449357,Beaumont Adult School,CA,92223,Beaumont,-116.964728,33.951365
481261,Beautiful You School of Nail Technology,UT,84720-8360,Cedar City,-113.095947,37.658257
234401,Beauty Academy,WA,98801,Wenatchee,-120.309427,47.421736
460969,Beauty Academy of South Florida,FL,33016-2421,Hialeah Gardens,-80.323571,25.86289
139092,Beauty College of America,GA,30297-1443,Forest Park,-84.351999,33.618673
374927,Beauty School of Middletown,NY,10940,Middletown,-74.428691,41.42455
468732,Beauty Schools of America,FL,33139-6504,Miami Beach,-80.138551,25.77483
419660,Beauty Schools of America-Hialeah,FL,33012-3322,Hialeah,-80.304716,25.865861
456861,Beauty Schools of America-Homestead,FL,33030,Homestead,-80.44566,25.47522
135771,Beauty Schools of America-Miami,FL,33144-4700,Miami,-80.303842,25.760695
450182,Beauty Schools of America-North Miami Beach,FL,33162,North Miami Beach,-80.163613,25.926365
207272,Beauty Technical College Inc,OK,74465,Tahlequah,-94.948289,35.914902
215336,Beaver Falls Beauty Academy,PA,15010-4208,Beaver Falls,-80.320347,40.754161
164720,Becker College,MA,01609-2165,Worcester,-71.811895,42.26918
247065,Beckfield College-Florence,KY,41042,Florence,-84.641475,39.017166
452373,Beckfield College-Tri-County,OH,45246,Springdale,-84.481426,39.296683
130837,Beebe Medical Center Margaret H Rollins School of Nursing,DE,19958,Lewes,-75.142425,38.771265
444413,Beis Medrash Heichal Dovid,NY,11691,Far Rockaway,-73.751509,40.596827
126359,Bel-Rea Institute of Animal Technology,CO,80247,Denver,-104.875292,39.686066
190956,Belanger School of Nursing,NY,12304,Schenectady,-73.914641,42.80359
175421,Belhaven University,MS,39202,Jackson,-90.169228,32.318415
364760,Bell Mar Beauty College,IL,60804,Cicero,-87.767083,41.850669
461193,Bella Capelli Academy,PA,15146-2388,Monroeville,-79.781411,40.43278
156286,Bellarmine University,KY,40205-0671,Louisville,-85.7049,38.219138
481571,Belle Academy of Cosmetology,CT,06704-0135,Waterbury,-73.057046,41.596412
444422,Bellefonte Academy of Beauty,KY,41169,Russell,-82.693274,38.53099
234669,Bellevue College,WA,98007-6484,Bellevue,-122.149955,47.584778
180814,Bellevue University,NE,68005-3098,Bellevue,-95.91764,41.150225
238324,Bellin College,WI,54311,Green Bay,-87.921722,44.468277
234687,Bellingham Beauty School,WA,98226-5515,Bellingham,-122.480126,48.750789
234696,Bellingham Technical College,WA,98225-1599,Bellingham,-122.51216,48.766189
478953,Bellus Academy,KS,66502-2838,Manhattan,-96.609538,39.191162
116563,Bellus Academy-El Cajon,CA,92021,El Cajon,-116.945728,32.794827
109934,Bellus Academy-National City,CA,91950,National City,-117.090235,32.676762
377722,Bellus Academy-Poway,CA,92064,Poway,-117.042738,32.956526
197984,Belmont Abbey College,NC,28012-1802,Belmont,-81.041847,35.261276
201283,Belmont College,OH,43950,Saint Clairsville,-80.966742,40.077084
219709,Belmont University,TN,37212-3757,Nashville,-86.794715,36.133866
238333,Beloit College,WI,53511-5595,Beloit,-89.03147,42.50363
173124,Bemidji State University,MN,56601,Bemidji,-94.874529,47.482505
237172,Ben Franklin Career Center,WV,25064,Dunbar,-81.75353,38.367234
217721,Benedict College,SC,29204-1086,Columbia,-81.021412,34.011285
154712,Benedictine College,KS,66002-1499,Atchison,-95.111424,39.572953
145619,Benedictine University,IL,60532-0900,Lisle,-88.095948,41.776395
137591,Benes International School of Beauty,FL,34652,New Port Richey,-82.72846,28.261074
165884,Benjamin Franklin Institute of Technology,MA,2116,Boston,-71.070231,42.346023
439473,Bennett Career Institute,DC,20017,Washington,-76.995965,38.93264
197993,Bennett College,NC,27401-3239,Greensboro,-79.77998,36.067531
230816,Bennington College,VT,05201-6003,Bennington,-73.237498,42.92004
164739,Bentley University,MA,02452-4705,Waltham,-71.220148,42.388798
156295,Berea College,KY,40404-2182,Berea,-84.289332,37.573334
183743,Bergen Community College,NJ,07652-1595,Paramus,-74.094086,40.953733
461643,Bergin University of Canine Studies,CA,94928,Santa Rosa,-122.720731,38.35374
189219,Berk Trade and Business School,NY,11101-8120,Long Island City,-73.931301,40.745064
125170,Berkeley City College,CA,94704,Berkeley,-122.269793,37.87047
189228,Berkeley College-New York,NY,10017,New York,-73.979577,40.754043
183789,Berkeley College-Woodland Park,NJ,7424,Woodland Park,-74.188765,40.90208
164748,Berklee College of Music,MA,2215,Boston,-71.08703,42.346895
481021,Berks Career & Technology Center,PA,19533-9112,Leesport,-75.999034,40.386863
213534,Berks Technical Institute,PA,19610-1168,Wyomissing,-75.976997,40.342994
164775,Berkshire Community College,MA,01201-5786,Pittsfield,-73.318843,42.460877
139144,Berry College,GA,30149,Mount Berry,-85.189077,34.289254
461865,Best Care Training Institute,NJ,07018-1703,East Orange,-74.220921,40.76522
189273,Beth Hamedrash Shaarei Yosher Institute,NY,11204,Brooklyn,-73.981088,40.635503
189264,Beth Hatalmud Rabbinical College,NY,11214,Brooklyn,-73.993039,40.605394
183804,Beth Medrash Govoha,NJ,08701-2754,Lakewood,-74.220777,40.095461
237181,Bethany College,WV,26032,Bethany,-80.56916,40.204594
154721,Bethany College,KS,67456-1897,Lindsborg,-97.673173,38.5786
173142,Bethany Lutheran College,MN,56001,Mankato,-93.990744,44.166485
143233,Bethany Theological Seminary,IN,47374-4019,Richmond,-84.9099,39.8265
458113,Bethel College,VA,23666,Hampton,-76.409141,37.04095
150145,Bethel College-Indiana,IN,46545-5591,Mishawaka,-86.191642,41.677671
154749,Bethel College-North Newton,KS,67117-1716,North Newton,-97.342572,38.07525
369817,Bethel Seminary of the East,MD,20785,Landover,-76.859041,38.93445
262022,Bethel Seminary-San Diego,CA,92115,San Diego,-117.066378,32.765189
173179,Bethel Seminary-St Paul,MN,55112,Saint Paul,-93.159786,45.058775
219718,Bethel University,TN,38201,McKenzie,-88.516162,36.139271
173160,Bethel University,MN,55112,Saint Paul,-93.159295,45.057091
110060,Bethesda University of California,CA,92801,Anaheim,-117.941323,33.842295
132602,Bethune-Cookman University,FL,32114-3099,Daytona Beach,-81.031429,29.210193
139153,Beulah Heights University,GA,30316,Atlanta,-84.358086,33.737022
102429,Bevill State Community College,AL,35501,Jasper,-87.265034,33.835785
443702,Bexley Hall Episcopal Seminary,OH,43209-2325,Columbus,-82.940635,39.956227
457253,Beyond 21st Century Beauty Academy,CA,90670,Santa Fe Springs,-118.040811,33.916926
211130,Biblical Theological Seminary,PA,19440,Hatfield,-75.303897,40.281414
211149,Bidwell Training Center Inc,PA,15233,Pittsburgh,-80.032799,40.458378
234711,Big Bend Community College,WA,98837-3299,Moses Lake,-119.318507,47.185083
157553,Big Sandy Community and Technical College,KY,41653,Prestonsburg,-82.77839,37.687585
451200,Bio-Chi Institute of Massage Therapy,IA,51103,Sioux City,-96.417357,42.511136
454731,BioHealth College,CA,95134,San Jose,-121.93022,37.38751
110097,Biola University,CA,90639-0001,La Mirada,-118.017342,33.904823
431026,BIR Training Center,IL,60659,Chicago,-87.719326,41.997066
100937,Birmingham Southern College,AL,35254,Birmingham,-86.853636,33.515453
442949,Birthingway College of Midwifery,OR,97266,Portland,-122.538471,45.476809
442213,Birthwise Midwifery School,ME,04009-1110,Bridgton,-70.714191,44.053323
102030,Bishop State Community College,AL,36603-5898,Mobile,-88.056982,30.693972
200022,Bismarck State College,ND,58506-5587,Bismarck,-100.818485,46.820657
457721,Bitterroot School of Cosmetology,MT,59840,Hamilton,-114.158386,46.273477
236018,BJ's Beauty & Barber College,WA,98409,Tacoma,-122.483623,47.209361
143279,Black Hawk College,IL,61265-5899,Moline,-90.449497,41.475983
219037,Black Hills Beauty College,SD,57701,Rapid City,-103.227827,44.079845
219046,Black Hills State University,SD,57799-9500,Spearfish,-103.870009,44.495536
106625,Black River Technical College,AR,72455,Pocahontas,-90.951033,36.239793
143288,Blackburn College,IL,62626,Carlinville,-89.872248,39.288298
180054,Blackfeet Community College,MT,59417-0819,Browning,-113.009373,48.551632
238397,Blackhawk Technical College,WI,53547-5009,Janesville,-89.016161,42.593217
457615,Blackstone Valley Vocational Regional School District,MA,1568,Upton,-71.614464,42.164288
198011,Bladen Community College,NC,28332,Dublin,-78.731749,34.64609
366438,Blades School of Hair Design,MD,20619,California,-76.484661,38.288782
447810,Blake Austin College,CA,95687,Vacaville,-121.945606,38.378548
167464,Blessed John XXIII National Seminary,MA,02493-2699,Weston,-71.2717,42.3455
433165,Blessing Hospital School of Medical Laboratory Technology,IL,62305-7005,Quincy,-91.398646,39.936092
143303,Blessing Hospital School of Radiologic Technology,IL,62305-7005,Quincy,-91.398901,39.936595
143297,Blessing Rieman College of Nursing,IL,62305-7005,Quincy,-91.398548,39.935896
223427,Blinn College,TX,77833-4098,Brenham,-96.409677,30.159713
183822,Bloomfield College,NJ,7003,Bloomfield,-74.19593,40.794218
211158,Bloomsburg University of Pennsylvania,PA,17815,Bloomsburg,-76.446383,41.007989
444440,Blue Cliff Career College,AL,36606,Mobile,-88.114952,30.670281
450128,Blue Cliff College-Alexandria,LA,71301,Alexandria,-92.47662,31.275718
450119,Blue Cliff College-Fayetteville,AR,72703,Fayetteville,-94.144491,36.11393
441502,Blue Cliff College-Gulfport,MS,39503,Gulfport,-89.038993,30.442609
450021,Blue Cliff College-Houma,LA,70360,Houma,-90.718451,29.59157
439491,Blue Cliff College-Lafayette,LA,70508,Lafayette,-92.011131,30.18811
434821,Blue Cliff College-Metairie,LA,70002-5714,Metairie,-90.172771,30.002779
439482,Blue Cliff College-Shreveport,LA,71105,Shreveport,-93.724871,32.42408
243799,Blue Hills Regional Technical School,MA,2021,Canton,-71.103893,42.181648
175430,Blue Mountain College,MS,38610-9509,Blue Mountain,-89.02924,34.67209
208275,Blue Mountain Community College,OR,97801,Pendleton,-118.816944,45.677313
446774,Blue Ridge Community and Technical College,WV,25403,Martinsburg,-78.00267,39.437633
198039,Blue Ridge Community College,NC,28731-4728,Flat Rock,-82.425544,35.30804
231536,Blue Ridge Community College,VA,24486-0080,Weyers Cave,-78.939038,38.279582
446057,Blue Sky School of Professional Massage and Therapeutic Bodywork,WI,53024,Grafton,-87.924273,43.288154
442958,Blue Water College of Cosmetology Inc,MI,48040,Marysville,-82.481754,42.91731
231554,Bluefield College,VA,24605,Bluefield,-81.244879,37.245681
237215,Bluefield State College,WV,24701,Bluefield,-81.235428,37.26688
156392,Bluegrass Community and Technical College,KY,40506,Lexington,-84.502338,38.024467
201371,Bluffton University,OH,45817-2104,Bluffton,-83.897678,40.896998
481553,Bly's School of Cosmetology,FL,32601-4021,Gainesville,-82.330431,29.66495
175999,Board of Trustees-Mississippi State Institutions of Higher Learning,MS,39211,Jackson,-90.144689,32.338859
217749,Bob Jones University,SC,29614-0001,Greenville,-82.36329,34.87402
481483,Boca Beauty Academy,FL,33434-4178,Boca Raton,-80.166851,26.36718
460950,Body Therapy Institute,NC,27344-6728,Siler City,-79.335181,35.77931
476850,Boise Barber College,ID,83704-5919,Boise,-116.274324,43.632512
142090,Boise Bible College,ID,83714-1220,Boise,-116.290607,43.657437
142115,Boise State University,ID,83725,Boise,-116.205789,43.604403
444316,Bold Beauty Academy,MT,59101,Billings,-108.539809,45.776744
233356,Bon Secours Memorial College of Nursing,VA,23227-1149,Richmond,-77.433191,37.646876
233480,Bon Secours St Mary's Hospital School of Medical Imaging,VA,23227,Richmond,-77.433133,37.646799
481456,Bonnie Joseph Academy of Cosmetology and Barbering,UT,84032-2044,Heber City,-111.413557,40.505509
176734,Boonslick Technical Education Center,MO,65233,Boonville,-92.768635,38.940254
189413,Boricua College,NY,10032-1560,New York,-73.9458,40.833434
454759,Borner's Barber College,CA,90047,Los Angeles,-118.309351,33.95587
158431,Bossier Parish Community College,LA,71111-6922,Bossier City,-93.646881,32.539551
164872,Boston Architectural College,MA,02115-2703,Boston,-71.085851,42.34867
164614,Boston Baptist College,MA,02136-4030,Boston,-71.1103,42.254037
164924,Boston College,MA,2467,Chestnut Hill,-71.171488,42.337688
164915,Boston Graduate School of Psychoanalysis Inc,MA,2446,Brookline,-71.133025,42.339481
164988,Boston University,MA,2215,Boston,-71.09984,42.349581
126410,Boulder College of Massage Therapy,CO,803013295,Boulder,-105.207489,40.064782
161004,Bowdoin College,ME,4011,Brunswick,-69.965165,43.906969
162007,Bowie State University,MD,20715-9465,Bowie,-76.759721,39.018185
201432,Bowling Green State University-Firelands,OH,44839-9791,Huron,-82.594489,41.39808
201441,Bowling Green State University-Main Campus,OH,43403,Bowling Green,-83.637531,41.377036
202161,Bradford School,OH,43219,Columbus,-82.911152,40.023505
211200,Bradford School,PA,15219,Pittsburgh,-80.003679,40.432948
132675,Bradford-Union Technical Center,FL,32091,Starke,-82.123082,29.952134
143358,Bradley University,IL,61625-0001,Peoria,-89.61462,40.697605
189422,Bramson ORT College,NY,11375-4239,Forest Hills,-73.847799,40.721403
479992,Brand College,CA,91203,Glendale,-118.265451,34.15799
165015,Brandeis University,MA,02454-9110,Waltham,-71.254716,42.364947
262086,Brandman University,CA,92618,Irvine,-117.768624,33.655684
451042,Branford Academy of Hair and Cosmetology,CT,6405,Branford,-72.853601,41.2763
448974,Branford Hall Career Institute-Albany Campus,NY,12205,Albany,-73.84048,42.743118
195933,Branford Hall Career Institute-Bohemia Campus,NY,11716,Bohemia,-73.093869,40.777825
128674,Branford Hall Career Institute-Branford Campus,CT,06405-4103,Branford,-72.848201,41.278557
434520,Branford Hall Career Institute-Southington Campus,CT,6489,Southington,-72.877922,41.602304
438805,Branford Hall Career Institute-Springfield Campus,MA,1104,Springfield,-72.543347,42.140969
430096,Branford Hall Career Institute-Windsor Campus,CT,6095,Windsor,-72.702363,41.878055
223506,Brazosport College,TX,77566-3199,Lake Jackson,-95.409004,29.04836
139199,Brenau University,GA,30501-3668,Gainesville,-83.821513,34.303117
455424,Brensten Education,WI,53186-0000,Waukesha,-88.170301,43.03692
156356,Brescia University,KY,42301-3023,Owensboro,-87.111533,37.768989
198066,Brevard College,NC,28712,Brevard,-82.729763,35.237657
367875,Brewster Technical Center,FL,33602-2196,Tampa,-82.461722,27.96373
139205,Brewton-Parker College,GA,30445,Mount Vernon,-82.586136,32.185718
152992,Briar Cliff University,IA,51104,Sioux City,-96.42696,42.526919
189459,Briarcliffe College,NY,11714-3545,Bethpage,-73.495305,40.758196
445674,Bridgemont Community and Technical College,WV,25136,Montgomery,-81.323474,38.180425
128726,Bridgeport Hospital School of Nursing,CT,6610,Bridgeport,-73.165185,41.189413
230010,Bridgerland Applied Technology College,UT,84321,Logan,-111.850619,41.756188
231581,Bridgewater College,VA,22812-1599,Bridgewater,-78.969011,38.378391
165024,Bridgewater State University,MA,2325,Bridgewater,-70.966058,41.987785
230047,Brigham Young University-Hawaii,HI,96762-1294,Laie,-157.925358,21.641172
142522,Brigham Young University-Idaho,ID,83460-1690,Rexburg,-111.784728,43.815384
230038,Brigham Young University-Provo,UT,84602,Provo,-111.649281,40.250851
442976,Brighton Center's Center for Employment Training,KY,41071-1968,Newport,-84.490127,39.092551
477002,Brighton Institute of Cosmetology,MI,48116-8360,Brighton,-83.743601,42.52114
104294,Brillare Hairdressing Academy,AZ,85254,Scottsdale,-111.925481,33.623979
165033,Bristol Community College,MA,02720-7395,Fall River,-71.120263,41.721337
431187,Bristol Technical Education Center,CT,6010,Bristol,-72.990101,41.69004
397270,Bristol University,CA,92806-6198,Anaheim,-117.882331,33.79556
450304,Brite Divinity School,TX,76129,Fort Worth,-97.361561,32.709543
189468,Brittany Beauty School,NY,11756-1345,Levittown,-73.515715,40.724766
449311,Brittany Beauty School,NY,10458,Bronx,-73.897254,40.860986
459091,Broadview Entertainment Arts University,UT,84115,Salt Lake City,-111.884241,40.71722
467793,Broadview University-Boise,ID,83642-0000,Meridian,-116.360151,43.58943
450429,Broadview University-Layton,UT,84041,Layton,-111.981552,41.068684
454591,Broadview University-Orem,UT,84057,Orem,-111.72321,40.314203
230056,Broadview University-West Jordan,UT,84088,West Jordan,-111.92378,40.700265
206880,Broken Arrow Beauty College-Broken Arrow,OK,74012,Broken Arrow,-95.797476,36.049319
448424,Broken Arrow Beauty College-Tulsa,OK,74133,Tulsa,-95.852824,36.060356
183859,Brookdale Community College,NJ,07738-1597,Lincroft,-74.132746,40.324906
223524,Brookhaven College,TX,75244-4997,Farmers Branch,-96.85016,32.928237
444088,Brookline College-Albuquerque,NM,87105,Albuquerque,-106.687499,35.086652
448080,Brookline College-Oklahoma City,OK,73114,Oklahoma City,-97.514884,35.569765
104090,Brookline College-Phoenix,AZ,85021,Phoenix,-112.15007,33.525384
404055,Brookline College-Tempe,AZ,85281,Tempe,-111.960894,33.416104
438179,Brookline College-Tucson,AZ,85711,Tucson,-110.876375,32.207932
189501,Brooklyn Law School,NY,11201,Brooklyn,-73.990535,40.692662
110185,Brooks Institute,CA,93101,Santa Barbara,-119.695991,34.418552
198075,Brookstone College-Charlotte,NC,28262,Charlotte,-80.740616,35.327013
381644,Brookstone College-Greensboro,NC,27409-9545,Greensboro,-79.959661,36.077073
418010,Broome Delaware Tioga BOCES-Practical Nursing Program,NY,13905,Binghamton,-75.934739,42.129648
132709,Broward College,FL,33301,Fort Lauderdale,-80.23541,26.07972
441645,Brown Aveda Institute-Mentor,OH,44060,Mentor,-81.324318,41.672002
450395,Brown Aveda Institute-Rocky River,OH,44116,Rocky River,-81.837528,41.482182
139214,Brown College of Court Reporting,GA,30318,Atlanta,-84.414366,33.807277
475291,Brown College-Brooklyn Center,MN,55430,Brooklyn Center,-93.305681,45.06468
174394,Brown College-Mendota Heights,MN,55120,Mendota Heights,-93.163291,44.86523
205647,Brown Mackie College-Akron,OH,44320,Akron,-81.590449,41.096846
460039,Brown Mackie College-Albuquerque,NM,87123,Albuquerque,-106.52703,35.07932
410283,Brown Mackie College-Atlanta,GA,30319,Atlanta,-84.354843,33.9375
470162,Brown Mackie College-Birmingham,AL,35209-4701,Birmingham,-86.828331,33.46781
455600,Brown Mackie College-Boise,ID,83709,Boise,-116.295147,43.590789
205610,Brown Mackie College-Cincinnati,OH,45215-1107,Cincinnati,-84.45701,39.255963
482954,Brown Mackie College-Dallas,TX,76021,Bedford,-97.119807,32.839142
375489,Brown Mackie College-Findlay,OH,45840,Findlay,-83.619502,41.058515
408039,Brown Mackie College-Fort Wayne,IN,46805,Fort Wayne,-85.101966,41.109132
456791,Brown Mackie College-Greenville,SC,29601,Greenville,-82.394491,34.853438
421513,Brown Mackie College-Hopkinsville,KY,42240-4948,Hopkinsville,-87.474774,36.834025
451699,Brown Mackie College-Indianapolis,IN,46204,Indianapolis,-86.157795,39.783638
154767,Brown Mackie College-Kansas City,KS,66215,Lenexa,-94.734296,38.952947
157599,Brown Mackie College-Louisville,KY,40219,Louisville,-85.696715,38.157272
151616,Brown Mackie College-Merrillville,IN,46410,Merrillville,-87.326134,41.473702
447290,Brown Mackie College-Miami,FL,33027-3264,Miramar,-80.349741,25.97424
151625,Brown Mackie College-Michigan City,IN,46360-7362,Michigan City,-86.896998,41.681625
204316,Brown Mackie College-North Canton,OH,44718,Canton,-81.429211,40.844878
157696,Brown Mackie College-Northern Kentucky,KY,41017,Fort Mitchell,-84.571708,39.041923
475042,Brown Mackie College-Oklahoma City,OK,73132,Oklahoma City,-97.639761,35.55989
456612,Brown Mackie College-Phoenix,AZ,85029,Phoenix,-112.118464,33.6054
373085,Brown Mackie College-Quad Cities,IA,52722,Bettendorf,-90.522321,41.54309
154776,Brown Mackie College-Salina,KS,67401-7307,Salina,-97.609673,38.839827
460613,Brown Mackie College-San Antonio,TX,78229,San Antonio,-98.555871,29.49426
151944,Brown Mackie College-South Bend,IN,46635,South Bend,-86.2053,41.71037
460048,Brown Mackie College-St Louis,MO,63026,Fenton,-90.43652,38.54435
104364,Brown Mackie College-Tucson,AZ,85712,Tucson,-110.895086,32.236736
455619,Brown Mackie College-Tulsa,OK,74146,Tulsa,-95.853318,36.09694
217156,Brown University,RI,2912,Providence,-71.404467,41.827605
110194,Brownson Technical School,CA,92805,Anaheim,-117.906409,33.819
198084,Brunswick Community College,NC,28422-9021,Bolivia,-78.22979,34.038973
180878,Bryan College of Health Sciences,NE,68506-1299,Lincoln,-96.651532,40.796768
219790,Bryan College-Dayton,TN,37321-7000,Dayton,-85.016596,35.495721
439826,Bryan College-Gold River,CA,95670-4443,Gold River,-121.262813,38.623627
369516,Bryan University,MO,65804,Springfield,-93.247901,37.13528
454458,Bryan University,AR,72756,Rogers,-94.17008,36.334163
110219,Bryan University,CA,90010,Los Angeles,-118.302882,34.061406
475583,Bryan University,MO,65201-8248,Columbia,-92.292601,38.91579
154794,Bryan University,KS,66604,Topeka,-95.74372,39.038738
475699,Bryant & Stratton College-Akron,OH,44321-2798,Copley,-81.655001,41.12816
188517,Bryant & Stratton College-Albany,NY,12205,Albany,-73.810438,42.697996
189556,Bryant & Stratton College-Amherst,NY,14068,Getzville,-78.743201,43.04051
458502,Bryant & Stratton College-Bayshore,WI,53217,Glendale,-87.91537,43.11936
189583,Bryant & Stratton College-Buffalo,NY,14203,Buffalo,-78.874095,42.886474
202684,Bryant & Stratton College-Cleveland,OH,44115,Cleveland,-81.666561,41.50293
369905,Bryant & Stratton College-Eastlake,OH,44095,Eastlake,-81.43532,41.639256
189592,Bryant & Stratton College-Greece,NY,14612,Rochester,-77.696543,43.240725
459107,Bryant & Stratton College-Hampton,VA,23666,Hampton,-76.39268,37.04386
410496,Bryant & Stratton College-Henrietta,NY,14623,Rochester,-77.599568,43.085881
239929,Bryant & Stratton College-Milwaukee,WI,53203-2608,Milwaukee,-87.915286,43.039176
480091,Bryant & Stratton College-Online,NY,14127,Orchard Park,-78.767204,42.79079
201469,Bryant & Stratton College-Parma,OH,44130-3151,Parma,-81.783618,41.40511
231828,Bryant & Stratton College-Richmond,VA,23235,North Chesterfield,-77.542139,37.460414
374972,Bryant & Stratton College-Southtowns,NY,14127,Orchard Park,-78.770366,42.790182
189574,Bryant & Stratton College-Syracuse,NY,13203-2502,Syracuse,-76.136679,43.058795
189565,Bryant & Stratton College-Syracuse North,NY,13090,Liverpool,-76.240182,43.189609
231785,Bryant & Stratton College-Virginia Beach,VA,23462,Virginia Beach,-76.138144,36.82779
451750,Bryant & Stratton College-Wauwatosa,WI,53226,Wauwatosa,-88.050983,43.043215
217165,Bryant University,RI,02917-1291,Smithfield,-71.539147,41.920149
210492,Bryn Athyn College of the New Church,PA,19009-0717,Bryn Athyn,-75.06093,40.131358
211273,Bryn Mawr College,PA,19010,Bryn Mawr,-75.314988,40.028541
446075,Buchanan Beauty College,TN,37160,Shelbyville,-86.460847,35.497594
469993,Buchanan Beauty College,TN,37388-3409,Tullahoma,-86.205871,35.35414
211316,Buck's County School of Beauty Culture Inc,PA,19053-7368,Feasterville,-75.0064,40.1644
201478,Buckeye Hills Career Center,OH,45674-0157,Rio Grande,-82.391574,38.893108
383312,Buckeye Joint Vocational School,OH,44663-9450,New Philadelphia,-81.401957,40.470531
211291,Bucknell University,PA,17837,Lewisburg,-76.886275,40.954489
461740,Buckner Barber School,TX,75217-1775,Dallas,-96.683035,32.738573
211307,Bucks County Community College,PA,18940-4106,Newtown,-74.965841,40.239102
153001,Buena Vista University,IA,50588,Storm Lake,-95.208053,42.642529
196130,Buffalo State SUNY,NY,14222,Buffalo,-78.88067,42.934199
417187,Bullard-Havens Technical High School,CT,6610,Bridgeport,-73.164171,41.199127
165112,Bunker Hill Community College,MA,02129-2925,Boston,-71.069263,42.374806
230825,Burlington College,VT,5401,Burlington,-73.228181,44.49117
183877,Burlington County College,NJ,08068-1599,Pemberton,-74.645467,39.964352
189653,Business Informatics Center Inc,NY,11580-5431,Valley Stream,-73.707437,40.663414
211334,Butler Beauty Academy,PA,16001,Butler,-79.895023,40.858009
154800,Butler Community College,KS,67042-3280,El Dorado,-96.882718,37.806377
211343,Butler County Community College,PA,16002,Butler,-79.912831,40.828345
201496,Butler Tech-D Russel Lee Career Center,OH,45011,Hamilton,-84.49281,39.408939
150163,Butler University,IN,46208,Indianapolis,-86.171791,39.840662
180063,Butte Academy of Beauty Culture,MT,59701,Butte,-112.540163,46.0121
110246,Butte College,CA,95965-8399,Oroville,-121.644691,39.649116
444103,Byzantine Catholic Seminary of Saints Cyril and Methodius,PA,15214-2229,Pittsburgh,-80.015825,40.484409
198109,Cabarrus College of Health Sciences,NC,28025-3959,Concord,-80.60119,35.438139
237242,Cabell County Career Technology Center,WV,25705-2827,Huntington,-82.372418,38.403244
110334,Cabrillo College,CA,95003,Aptos,-121.927926,36.9891
211352,Cabrini College,PA,19087-3698,Radnor,-75.37215,40.054565
481304,Cactus Academy,NY,11530-3402,Garden City,-73.615721,40.74262
364946,Caddo Kiowa Technology Center,OK,73038-0190,Fort Cobb,-98.44242,35.09512
169071,Cadillac Institute of Cosmetology,MI,49601,Cadillac,-85.40051,44.251606
379135,Cain's Barber College Inc,IL,60615-3510,Chicago,-87.617257,41.801785
215114,Cairn University-Langhorne,PA,19047-2990,Langhorne,-74.909509,40.165809
413918,Cairn University-Wisconsin Wilderness,WI,54821,Cable,-91.254884,46.249604
446084,CALC Institute of Technology,IL,62002,Alton,-90.175056,38.927227
183910,Caldwell College,NJ,07006-6195,Caldwell,-74.273697,40.834285
198118,Caldwell Community College and Technical Institute,NC,28638,Hudson,-81.484148,35.854604
110361,California Baptist University,CA,92504-3297,Riverside,-117.42587,33.928569
110875,California Beauty School,CA,95354,Modesto,-120.99689,37.645217
447713,California Career College,CA,91303-2006,Canoga Park,-118.601794,34.197566
481386,California Career Institute,CA,92840-2816,Garden Grove,-117.958839,33.786572
262402,California Career School,CA,92805,Anaheim,-117.906418,33.819073
110918,California Christian College,CA,93703-3599,Fresno,-119.732752,36.767596
110370,California College of the Arts,CA,94107-2247,San Francisco,-122.400263,37.767266
443429,California College of Vocational Careers,CA,93301,Bakersfield,-119.023094,35.385443
478625,California College San Diego,CA,91950-7924,National City,-117.097371,32.64977
110945,California College San Diego,CA,92111-1009,San Diego,-117.167121,32.83529
478634,California College San Diego,CA,92069-2971,San Marcos,-117.158852,33.138106
111054,California Hair Design Academy,CA,91941-5055,La Mesa,-117.024261,32.765221
442985,California Healing Arts College,CA,90746-7323,Carson,-118.265741,33.8447
110316,California Institute of Integral Studies,CA,94103,San Francisco,-122.416537,37.774768
110404,California Institute of Technology,CA,91125,Pasadena,-118.12574,34.139275
111081,California Institute of the Arts,CA,91355-2397,Valencia,-118.567303,34.393337
455451,California InterContinental University,CA,91765,Diamond Bar,-117.838991,33.99557
110413,California Lutheran University,CA,91360-2787,Thousand Oaks,-118.879467,34.225551
111188,California Maritime Academy,CA,94590,Vallejo,-122.231551,38.069061
480781,California Miramar University,CA,92126,San Diego,-117.119351,32.89422
455734,California Nurses Educational Institute,CA,92264,Palm Springs,-116.489431,33.81682
110422,California Polytechnic State University-San Luis Obispo,CA,93407,San Luis Obispo,-120.65856,35.29889
110529,California State Polytechnic University-Pomona,CA,91768,Pomona,-117.819019,34.054273
110486,California State University-Bakersfield,CA,93311-1099,Bakersfield,-119.104711,35.350005
110501,California State University-Chancellors Office,CA,90802-4210,Long Beach,-118.201255,33.764338
441937,California State University-Channel Islands,CA,93012,Camarillo,-119.04356,34.162949
110538,California State University-Chico,CA,95929-0150,Chico,-121.846333,39.728003
110547,California State University-Dominguez Hills,CA,90747-0005,Carson,-118.259316,33.86524
110574,California State University-East Bay,CA,94542,Hayward,-122.058073,37.65707
110556,California State University-Fresno,CA,93740,Fresno,-119.748258,36.814477
110565,California State University-Fullerton,CA,92831-3599,Fullerton,-117.885349,33.883627
110583,California State University-Long Beach,CA,90840-0115,Long Beach,-118.1123,33.782752
110592,California State University-Los Angeles,CA,90032,Los Angeles,-118.168965,34.066927
409698,California State University-Monterey Bay,CA,93955-8001,Seaside,-121.799216,36.653724
110608,California State University-Northridge,CA,91330,Northridge,-118.526817,34.23671
110617,California State University-Sacramento,CA,95819-2694,Sacramento,-121.42194,38.55745
110510,California State University-San Bernardino,CA,92407-2397,San Bernardino,-117.322508,34.182987
366711,California State University-San Marcos,CA,92096-0001,San Marcos,-117.158013,33.129115
110495,California State University-Stanislaus,CA,95382-0299,Turlock,-120.852511,37.52577
460075,California University of Management and Sciences,CA,92801,Anaheim,-117.942211,33.84205
211361,California University of Pennsylvania,PA,15419-1394,California,-79.884477,40.066473
111391,California Western School of Law,CA,92101-3046,San Diego,-117.162597,32.72194
150172,Calumet College of Saint Joseph,IN,46394,Whiting,-87.492987,41.670925
211370,Calvary Baptist Theological Seminary,PA,19446-4797,Lansdale,-75.313469,40.231792
176789,Calvary Bible College and Theological Seminary,MO,64147-1341,Kansas City,-94.546238,38.838169
169080,Calvin College,MI,49546,Grand Rapids,-85.587548,42.929916
169099,Calvin Theological Seminary,MI,49546-4387,Grand Rapids,-85.587354,42.92992
428329,Cambria-Rowe Business College-Indiana,PA,15701,Indiana,-79.165982,40.617673
211398,Cambria-Rowe Business College-Johnstown,PA,15902,Johnstown,-78.910812,40.303743
165167,Cambridge College,MA,2138,Cambridge,-71.11084,42.369193
446109,Cambridge Institute of Allied Health & Technology,FL,32701,Altamonte Springs,-81.375851,28.66311
454865,Cambridge Institute of Health & Technology,FL,33484,Delray Beach,-80.1257,26.438131
460659,Cambridge Junior College-Woodland,CA,95695,Woodland,-121.774381,38.67783
446093,Cambridge Junior College-Yuba City,CA,95993,Yuba City,-121.652227,39.13994
183938,Camden County College,NJ,8012,Blackwood,-75.040471,39.785083
417549,Camelot College,LA,70805,Baton Rouge,-91.115413,30.473452
143464,Cameo Beauty Academy,IL,60453,Oak Lawn,-87.740865,41.716251
230065,Cameo College of Essential Beauty,UT,84107,Murray,-111.888447,40.644877
158440,Cameron College,LA,70119,New Orleans,-90.088158,29.965586
206914,Cameron University,OK,73505-6377,Lawton,-98.434163,34.606487
198136,Campbell University,NC,27506,Buies Creek,-78.739508,35.409333
156365,Campbellsville University,KY,42718-2799,Campbellsville,-85.348943,37.343342
111434,Canada College,CA,94061-1099,Redwood City,-122.265549,37.447365
365374,Canadian Valley Technology Center,OK,73036,El Reno,-97.881967,35.509208
189705,Canisius College,NY,14208-1098,Buffalo,-78.851794,42.925319
200208,Cankdeska Cikana Community College,ND,58335,Fort Totten,-98.990801,47.978122
401481,Cannella School of Hair Design-Blue Island,IL,60406-2130,Blue Island,-87.679851,41.657728
364812,Cannella School of Hair Design-Chicago,IL,60639-4828,Chicago,-87.732314,41.909626
143491,Cannella School of Hair Design-Chicago,IL,60632-2549,Chicago,-87.701239,41.815699
143482,Cannella School of Hair Design-Chicago,IL,60617-4303,Chicago,-87.551315,41.731437
143516,Cannella School of Hair Design-Elgin,IL,60120,Elgin,-88.286781,42.036421
143473,Cannella School of Hair Design-Villa Park,IL,60181,Villa Park,-87.939652,41.901717
458025,Cannon Institute of Higher Learning,TX,75247,Dallas,-96.871531,32.828
201539,Canton City Schools Adult Career and Technical Education,OH,44702,Canton,-81.362946,40.79487
165194,Cape Cod Community College,MA,02668-1599,West Barnstable,-70.337334,41.69192
431558,Cape Coral Institute of Technology,FL,33993-2479,Cape Coral,-81.975445,26.658856
198154,Cape Fear Community College,NC,28401-3910,Wilmington,-77.948985,34.240243
176798,Cape Girardeau Career and Technology Center,MO,63703-7511,Cape Girardeau,-89.56525,37.274138
413413,Capella University,MN,55402-3389,Minneapolis,-93.268714,44.976186
461704,Capilo School of Hair Design,ME,04330-0000,Augusta,-69.777061,44.317554
367972,Capital Area School of Practical Nursing,IL,62712-3803,Springfield,-89.626262,39.718311
158352,Capital Area Technical College,LA,70805,Baton Rouge,-91.155405,30.477587
129367,Capital Community College,CT,6103,Hartford,-72.672734,41.768397
201548,Capital University,OH,43209-2394,Columbus,-82.937867,39.954875
223667,Capitol City Careers,TX,78735,Austin,-97.839564,30.2377
223658,Capitol City Trade and Technical School,TX,78704,Austin,-97.744924,30.254874
162061,Capitol College,MD,20708,Laurel,-76.851413,39.047047
365693,Capitol School of Hairstyling and Esthetics,NE,68137-2325,Omaha,-96.082351,41.20965
457031,Capri Beauty College,IL,60451,New Lenox,-87.927816,41.509958
143552,Capri Beauty College,IL,60452,Oak Forest,-87.771567,41.603863
143534,Capri Beauty College,IL,60629,Chicago,-87.690557,41.778957
153083,Capri College-Cedar Rapids,IA,52404,Cedar Rapids,-91.71027,41.9607
154448,Capri College-Davenport,IA,52807-3003,Davenport,-90.539206,41.574837
153074,Capri College-Dubuque,IA,52004-0873,Dubuque,-90.665345,42.497443
407391,Capri Institute of Hair Design-Brick,NJ,8723,Brick,-74.143209,40.039225
363077,Capri Institute of Hair Design-Clifton,NJ,7011,Clifton,-74.150342,40.887599
407407,Capri Institute of Hair Design-Kenilworth,NJ,7033,Kenilworth,-74.294021,40.68951
407425,Capri Institute of Hair Design-Paramus,NJ,7652,Paramus,-74.071287,40.962905
189714,Capri School of Hair Design,NY,10954,Nanuet,-74.021088,41.099737
377759,Capstone College,CA,91402,Van Nuys,-118.450327,34.220083
455707,Cardiac and Vascular Institute of Ultrasound,AL,36606,Mobile,-88.112221,30.65016
238430,Cardinal Stritch University,WI,53217-3985,Milwaukee,-87.909045,43.139752
458034,Cardiotech Ultrasound School,TX,77099,Houston,-95.592801,29.67527
111513,Career Academy of Beauty,CA,92845,Garden Grove,-118.031697,33.781018
107220,Career Academy of Hair Design,AR,72764-7128,Springdale,-94.131834,36.16757
418205,Career and Technology Education Centers of Licking County,OH,43055-3399,Newark,-82.429175,40.099973
444468,Career Beauty College,TN,38464,Lawrenceburg,-87.335841,35.23998
446118,Career Care Institute,CA,93534,Lancaster,-118.15638,34.678236
417442,Career Center of Southern Illinois,IL,62278,Red Bud,-89.948787,38.289727
451006,Career College Consultants,CA,90041,Los Angeles,-118.214934,34.137604
449436,Career College of California,CA,92701,Santa Ana,-117.866181,33.74836
181941,Career College of Northern Nevada,NV,89434-7905,Sparks,-119.750697,39.510978
400637,Career Colleges of America,CA,90280,South Gate,-118.171755,33.930045
454801,Career Development Institute,CA,90035,Los Angeles,-118.386143,34.045703
418162,Career Institute of Health and Technology,NY,11530,Garden City,-73.607121,40.72714
443553,Career Institute of Health and Technology,NY,11201,Brooklyn,-73.982706,40.691141
433013,Career Networks Institute,CA,92868-4710,Orange,-117.885043,33.693904
246008,Career Point College,OK,74146,Tulsa,-95.853268,36.117167
224439,Career Point College,TX,78201,San Antonio,-98.551321,29.49252
469975,Career Quest Learning Center-Kalamazoo,MI,49002-1711,Kalamazoo,-85.560069,42.243182
454306,Career Quest Learning Centers-Jackson,MI,48901,Jackson,-84.402591,42.246771
446136,Career Quest Learning Centers-Lansing,MI,48910,Lansing,-84.53728,42.699106
455220,Career School of NY,NY,10301,Staten Island,-74.078168,40.641352
367112,Career Technical College-Monroe,LA,71201,Monroe,-92.10098,32.524328
446880,Career Technical College-Shreveport,LA,71105,Shreveport,-93.70316,32.485049
420370,Career Technical Institute,DC,20005,Washington,-77.032461,38.904
246071,Career Technology Center of Lackawanna County,PA,18508,Scranton,-75.652477,41.452849
408312,Career Training Academy-Monroeville,PA,15146,Monroeville,-79.77612,40.442498
210951,Career Training Academy-New Kensington,PA,15068-6308,New Kensington,-79.764064,40.562911
440174,Career Training Academy-Pittsburgh,PA,15237,Pittsburgh,-80.02044,40.550469
441858,Career Training Solutions,VA,22408,Fredericksburg,-77.495581,38.24116
448239,Careers Unlimited,UT,84058,Orem,-111.7314,40.274853
206923,Carl Albert State College,OK,74953-5208,Poteau,-94.63383,35.03821
143613,Carl Sandburg College,IL,61401,Galesburg,-90.408203,40.98128
173258,Carleton College,MN,55057-4001,Northfield,-93.154662,44.462304
132842,Carlos Albizu University-Miami,FL,33172-2209,Miami,-80.355002,25.795162
211431,Carlow University,PA,15213-3165,Pittsburgh,-79.963927,40.439851
451194,Carlson College of Massage Therapy,IA,52205,Anamosa,-91.356196,42.103958
169187,Carnegie Institute,MI,48083,Troy,-83.118801,42.53889
211440,Carnegie Mellon University,PA,15213-3890,Pittsburgh,-79.942914,40.444616
199971,Carolina Christian College,NC,27105,Winston Salem,-80.192792,36.148443
461032,Carolina College of Biblical Studies,NC,28303-5157,Fayetteville,-78.939491,35.05137
460765,Carolina College of Hair Design,NC,28805-1232,Asheville,-82.532911,35.59477
198190,Carolina School of Broadcasting,NC,28214,Charlotte,-80.983976,35.255857
433174,Carolinas College of Health Sciences,NC,28203-2861,Charlotte,-80.838535,35.200295
201618,Carousel Beauty College-Dayton,OH,45402,Dayton,-84.189997,39.761351
416980,Carousel Beauty College-Kettering,OH,45420,Kettering,-84.122684,39.701085
201609,Carousel Beauty College-Middletown,OH,45044,Middletown,-84.354709,39.503851
416971,Carousel Beauty College-Springfield,OH,45504,Springfield,-83.850037,39.9456
201627,Carousel of Miami Valley Beauty College,OH,45424,Huber Heights,-84.140011,39.867502
437927,Carrington College California-Antioch,CA,94509,Antioch,-121.786092,37.969344
450702,Carrington College California-Citrus Heights,CA,95621,Citrus Heights,-121.29421,38.679983
445355,Carrington College California-Emeryville,CA,94608,Emeryville,-122.293647,37.841369
438258,Carrington College California-Pleasant Hill,CA,94523,Pleasant Hill,-122.072153,37.962649
467368,Carrington College California-Pomona,CA,91768-2642,Pomona,-117.803691,34.06302
125532,Carrington College California-Sacramento,CA,95826,Sacramento,-121.36892,38.561777
437936,Carrington College California-San Jose,CA,95119,San Jose,-121.776159,37.235597
246974,Carrington College California-San Leandro,CA,94578-1977,San Leandro,-122.125819,37.701216
450696,Carrington College California-Stockton,CA,95207,Stockton,-121.323199,37.998992
442602,Carrington College-Albuquerque,NM,87107-1642,Albuquerque,-106.633361,35.11029
142054,Carrington College-Boise,ID,83704-8742,Boise,-116.260571,43.615935
457101,Carrington College-Las Vegas,NV,89119,Las Vegas,-115.117941,36.08533
103909,Carrington College-Mesa,AZ,85210,Mesa,-111.855281,33.39207
475750,Carrington College-Mesquite,TX,75150-6509,Mesquite,-96.626121,32.81582
103893,Carrington College-Phoenix,AZ,85051-4063,Phoenix,-112.115546,33.560821
250601,Carrington College-Phoenix Westside,AZ,85017-5885,Phoenix,-112.117751,33.52331
246035,Carrington College-Portland,OR,97232-1309,Portland,-122.653583,45.532356
457110,Carrington College-Reno,NV,89511,Reno,-119.78785,39.46399
439118,Carrington College-Spokane,WA,99206-4187,Spokane,-117.268101,47.67611
103927,Carrington College-Tucson,AZ,85705-5885,Tucson,-110.977571,32.27094
180106,Carroll College,MT,59625-0002,Helena,-112.04053,46.602202
405872,Carroll Community College,MD,21157,Westminster,-76.991113,39.531805
238458,Carroll University,WI,53186,Waukesha,-88.227962,43.004647
409166,Carson City Beauty Academy,NV,89701-7565,Carson City,-119.76862,39.184411
219806,Carson-Newman University,TN,37760,Jefferson City,-83.492183,36.122224
447430,Carsten Institute of Cosmetology,NY,10003,New York,-73.99095,40.737257
419156,Carsten Institute of Cosmetology,AZ,85282,Tempe,-111.926059,33.391423
198206,Carteret Community College,NC,28557-2989,Morehead City,-76.756673,34.724636
238476,Carthage College,WI,53140-1994,Kenosha,-87.820706,42.622893
481049,Carthage R9 School District-Carthage Technical Center,MO,64836-1332,Carthage,-94.300532,37.174366
139287,Carver Bible College,GA,30331,Atlanta,-84.515091,33.7236
430795,Carver Career Center,WV,25306-6397,Charleston,-81.562988,38.289708
111638,Casa Loma College-Van Nuys,CA,91405,Van Nuys,-118.448335,34.195438
203438,Casal Aveda Institute,OH,44515,Austintown,-80.772812,41.10196
455211,Casal Institute of Nevada,NV,89119,Las Vegas,-115.117263,36.101554
235954,Cascade Beauty College,WA,98002-5504,Auburn,-122.223312,47.308073
439190,Cascadia Community College,WA,98011-8205,Bothell,-122.191108,47.759958
201645,Case Western Reserve University,OH,44106,Cleveland,-81.605769,41.500812
240505,Casper College,WY,82601-4699,Casper,-106.327007,42.830517
417682,Cass Career Center,MO,64701-2024,Harrisonville,-94.335682,38.658014
230834,Castleton State College,VT,5735,Castleton,-73.181486,43.607982
198215,Catawba College,NC,28144,Salisbury,-80.486575,35.692445
198233,Catawba Valley Community College,NC,28602-0699,Hickory,-81.28792,35.699732
218089,Cathedral Bible College,SC,29577-1413,Myrtle Beach,-78.939706,33.660907
165255,Catherine Hinds Institute of Esthetics,MA,01801-6819,Woburn,-71.1371,42.492682
143659,Catholic Theological Union at Chicago,IL,60615-5698,Chicago,-87.585772,41.798059
131283,Catholic University of America,DC,20064,Washington,-76.998961,38.935796
417983,Cattaraugus Allegany BOCES-Practical Nursing Program,NY,14760,Olean,-78.405395,42.093196
430306,Cayce Reilly School of Massotherapy,VA,23451,Virginia Beach,-75.990601,36.89281
189839,Cayuga County Community College,NY,13021-3099,Auburn,-76.543191,42.943802
430883,Cayuga Onondaga BOCES-Practical Nursing Program,NY,13021,Auburn,-76.616897,42.917744
189848,Cazenovia College,NY,13035,Cazenovia,-75.854054,42.931946
439367,CBD College,CA,90010,Los Angeles,-118.306201,34.0623
456977,CBT College-Cutler Bay,FL,33157,Cutler Bay,-80.357477,25.589553
375647,CC's Cosmetology College,OK,74129,Tulsa,-95.884971,36.1329
449773,CCI Training Center-Arlington,TX,76011,Arlington,-97.100336,32.75582
461467,CCIC Beauty College,AZ,853452410,Peoria,-112.272504,33.583482
447874,CDA Technical Institute,FL,32208,Jacksonville,-81.640851,30.388141
451495,CDE Career Institute,PA,18372,Tannersville,-75.310657,41.047703
162104,Cecil College,MD,21901-1999,North East,-75.955949,39.642225
211468,Cedar Crest College,PA,18104-6196,Allentown,-75.519799,40.586695
223773,Cedar Valley College,TX,75134-3799,Lancaster,-96.763421,32.625686
201654,Cedarville University,OH,45314-0601,Cedarville,-83.812098,39.750338
454917,Celebrity School of Beauty,FL,33144,Miami,-80.333201,25.761451
183974,Centenary College,NJ,7840,Hackettstown,-74.832775,40.848693
158477,Centenary College of Louisiana,LA,71134-1188,Shreveport,-93.731518,32.483004
379782,Center for Advanced Legal Studies,TX,77098-4151,Houston,-95.41912,29.732118
455910,Center for Massage & Natural Health,NC,28801,Asheville,-82.550571,35.594
449667,Center for Natural Wellness School of Massage Therapy,NY,12205,Albany,-73.805687,42.72093
457651,CenterPoint Massage and Shiatsu Therapy School and Clinic,MN,55416,St Louis Park,-93.346901,44.93991
100760,Central Alabama Community College,AL,35010,Alexander City,-85.94653,32.924429
104346,Central Arizona College,AZ,85128-9030,Coolidge,-111.652501,32.957092
106713,Central Baptist College,AR,72034,Conway,-92.444102,35.084574
154837,Central Baptist Theological Seminary,KS,66226-3513,Shawnee,-94.838449,39.009412
176938,Central Bible College,MO,658031033,Springfield,-93.295036,37.253175
419183,Central California School,CA,93401,San Luis Obispo,-120.644796,35.263725
436003,Central Career Institute LLC,NJ,07080-2408,South Plainfield,-74.421204,40.547815
198251,Central Carolina Community College,NC,27330-9840,Sanford,-79.144506,35.472316
218858,Central Carolina Technical College,SC,29150-2499,Sumter,-80.367398,33.9328
154855,Central Christian College of Kansas,KS,67460-5740,McPherson,-97.667373,38.357964
176910,Central Christian College of the Bible,MO,65270-1997,Moberly,-92.427259,39.395963
378105,Central Coast College,CA,93901-3301,Salinas,-121.655643,36.669595
153108,Central College,IA,50219,Pella,-92.918664,41.400236
417725,Central College of Cosmetology,MO,65584,Saint Robert,-92.14396,37.814903
180902,Central Community College,NE,68802-4903,Grand Island,-98.372549,40.889582
128771,Central Connecticut State University,CT,6050,New Britain,-72.770094,41.690258
439525,Central Florida Institute,FL,34684-0000,Palm Harbor,-82.74043,28.050137
140304,Central Georgia Technical College,GA,31206,Macon,-83.690844,32.811167
483045,Central Georgia Technical College,GA,31088,Warner Robins,-83.667531,32.54502
173203,Central Lakes College-Brainerd,MN,56401-3900,Brainerd,-94.21524,46.346006
158088,Central Louisiana Technical Community College,LA,71302-3137,Alexandria,-92.445044,31.25956
161077,Central Maine Community College,ME,04210-6498,Auburn,-70.235498,44.134346
161022,Central Maine Medical Center College of Nursing and Health Professions,ME,4240,Lewiston,-70.217692,44.100474
425870,Central Mass School of Massage and Therapy Inc,MA,1562,Spencer,-71.99074,42.245089
445267,Central Methodist University-College of Graduate and Extended Studies,MO,65248-1198,Fayette,-92.686156,39.150383
176947,Central Methodist University-College of Liberal Arts and Sciences,MO,65248-1198,Fayette,-92.685276,39.150534
169248,Central Michigan University,MI,48859,Mount Pleasant,-84.775275,43.591137
187532,Central New Mexico Community College,NM,87106,Albuquerque,-106.624957,35.07599
455743,Central Nursing College,CA,90010,Los Angeles,-118.302492,34.061224
201672,Central Ohio Technical College,OH,43055-1767,Newark,-82.447441,40.069314
208318,Central Oregon Community College,OR,97701,Bend,-121.345804,44.070651
211477,Central Penn College,PA,17093-0309,Summerdale,-76.934461,40.3049
369668,Central Pennsylvania Institute of Science and Technology,PA,16823,Pleasant Gap,-77.740423,40.882223
198260,Central Piedmont Community College,NC,28204,Charlotte,-80.829796,35.217774
231688,Central School of Practical Nursing,VA,23502,Norfolk,-76.209528,36.869409
201681,Central School of Practical Nursing,OH,44131-0000,Independence,-81.658061,41.39748
206932,Central State Beauty Academy,OK,73162-6007,Oklahoma City,-97.667979,35.571541
446145,Central State Massage Academy,OK,73162,Oklahoma City,-97.668551,35.569792
201690,Central State University,OH,45384-1004,Wilberforce,-83.876795,39.716465
406422,Central Susquehanna Intermediate Unit LPN Career,PA,17837,Lewisburg,-76.898531,40.96284
246017,Central Technology Center,OK,74030,Drumright,-96.585322,35.994261
246460,Central Texas Beauty College-Round Rock,TX,78664-4604,Round Rock,-97.689509,30.519173
383464,Central Texas Beauty College-Temple,TX,76504-6948,Temple,-97.379163,31.084584
223816,Central Texas College,TX,76549-4199,Killeen,-97.809704,31.119054
231697,Central Virginia Community College,VA,24502-2498,Lynchburg,-79.184391,37.358895
234827,Central Washington University,WA,98926-7501,Ellensburg,-120.537716,47.004957
240514,Central Wyoming College,WY,82501,Riverton,-108.42701,43.030492
189857,Central Yeshiva Tomchei Tmimim Lubavitz,NY,11230,Brooklyn,-73.970807,40.627852
234845,Centralia College,WA,98531-4099,Centralia,-122.960746,46.716302
156408,Centre College,KY,40422-1394,Danville,-84.779175,37.645102
451592,Centura College-Alexandria,VA,22312,Alexandria,-77.142663,38.802684
420024,Centura College-Chesapeake,VA,23320,Chesapeake,-76.227712,36.765954
444972,Centura College-Columbia,SC,29223,Columbia,-80.944897,34.074693
377449,Centura College-Newport News,VA,23608,Newport News,-76.51806,37.139294
377458,Centura College-Norfolk,VA,23518-4833,Norfolk,-76.232565,36.908448
434812,Centura College-North Charleston,SC,29406-9235,North Charleston,-80.041206,32.953662
427982,Centura College-Richmond Main,VA,23235-5250,Richmond,-77.543339,37.498958
440378,Centura College-Richmond Westend,VA,23294,Richmond,-77.5189,37.608583
232016,Centura College-Virginia Beach,VA,23452-7431,Virginia Beach,-76.064503,36.837641
446446,Centura Institute,FL,32810,Orlando,-81.423074,28.615058
175315,Century College,MN,55110,White Bear Lake,-92.982109,45.041816
111887,Cerritos College,CA,90650-6298,Norwalk,-118.097263,33.88584
111896,Cerro Coso Community College,CA,93555-9571,Ridgecrest,-117.667706,35.567763
444510,CES College,CA,91502-2750,Burbank,-118.303321,34.18048
427894,CET-Alexandria,VA,22312,Alexandria,-77.14264,38.80271
146791,CET-Chicago,IL,60612,Chicago,-87.70911,41.869752
381255,CET-Coachella,CA,92236,Coachella,-116.185875,33.692248
427919,CET-Durham,NC,27701,Durham,-78.890217,35.990998
111726,CET-El Centro,CA,92243,El Centro,-115.549079,32.790908
432269,CET-El Paso,TX,79907,El Paso,-106.323535,31.696178
111771,CET-Gilroy,CA,95020,Gilroy,-121.561429,37.015671
381282,CET-Oxnard,CA,93030,Oxnard,-119.18145,34.194208
381334,CET-Rancho Temecula,CA,92590,Temecula,-117.168919,33.51193
430342,CET-Sacramento,CA,95828,Sacramento,-121.396589,38.525114
111799,CET-Salinas,CA,93901,Salinas,-121.652791,36.671635
111744,CET-San Bernardino,CA,92408,San Bernardino,-117.268738,34.075136
111708,CET-San Diego,CA,92102,San Diego,-117.122496,32.711715
381325,CET-Santa Maria,CA,93458,Santa Maria,-120.441978,34.943576
111717,CET-Sobrato,CA,95110,San Jose,-121.88698,37.322723
468769,CET-Soledad,CA,93960-2996,Soledad,-121.317773,36.415003
111762,CET-Watsonville,CA,95076,Watsonville,-121.767991,36.931833
111920,Chabot College,CA,94545,Hayward,-122.106969,37.642513
180948,Chadron State College,NE,69337-2690,Chadron,-103.002793,42.820672
111939,Chaffey College,CA,91737-3002,Rancho Cucamonga,-117.573086,34.14705
454218,Chamberlain College of Nursing-Administrative Office,IL,60515-5683,Downers Grove,-88.038558,41.949745
454245,Chamberlain College of Nursing-Arizona,AZ,85021-2995,Phoenix,-112.104421,33.56573
457129,Chamberlain College of Nursing-Florida,FL,32256,Jacksonville,-81.586421,30.243517
475732,Chamberlain College of Nursing-Georgia,GA,30342-1556,Atlanta,-84.350721,33.9117
454227,Chamberlain College of Nursing-Illinois,IL,60101,Addison,-88.038558,41.949727
475741,Chamberlain College of Nursing-Indiana,IN,46240-2158,Indianapolis,-86.111061,39.91916
466921,Chamberlain College of Nursing-Missouri,MO,63146-0000,St. Louis,-90.436221,38.70204
454236,Chamberlain College of Nursing-Ohio,OH,43209-2705,Columbus,-82.940493,39.940449
466930,Chamberlain College of Nursing-Texas,TX,77041,Houston,-95.562002,29.839013
460871,Chamberlain College of Nursing-Virginia,VA,22202-3843,Arlington,-77.050211,38.85232
446996,Chambersburg Beauty School,PA,17201,Chambersburg,-77.665359,39.935077
141486,Chaminade University of Honolulu,HI,96816-1578,Honolulu,-157.807642,21.290274
449782,Champion Beauty College,TX,77068,Houston,-95.489211,29.99352
422190,Champion Institute of Cosmetology,CA,92264,Palm Springs,-116.546814,33.81339
230852,Champlain College,VT,5401,Burlington,-73.204354,44.47295
202611,Chancellor University,OH,44131,Seven Hills,-81.664091,41.40256
364025,Chandler-Gilbert Community College,AZ,85225-2499,Chandler,-111.795922,33.293897
111948,Chapman University,CA,92866,Orange,-117.851481,33.793678
123493,Charles A Jones Career and Education Center,CA,95824-1529,Sacramento,-121.44111,38.51651
223852,Charles and Sues School of Hair Design,TX,77802,Bryan,-96.340188,30.652585
419095,Charles H McCann Technical School,MA,01247-3999,North Adams,-73.102434,42.66516
104391,Charles of Italy Beauty College,AZ,86403,Lake Havasu City,-114.328134,34.475275
111966,Charles R Drew University of Medicine and Science,CA,90059,Los Angeles,-118.242791,33.925658
418171,Charles Stuart School of Diamond Setting,NY,11229,Brooklyn,-73.958876,40.608355
217794,Charleston Cosmetology Institute,SC,29420,Charleston,-80.112237,32.917309
237303,Charleston School of Beauty Culture,WV,25301,Charleston,-81.634675,38.350168
451510,Charleston School of Law,SC,29403,Charleston,-79.938087,32.790803
217688,Charleston Southern University,SC,29406-9121,Charleston,-80.069288,32.981986
455169,Charlotte School of Law,NC,28244,Charlotte,-80.843091,35.22477
132976,Charlotte Technical Center,FL,33948-3399,Port Charlotte,-82.147238,27.005558
102845,Charter College-Anchorage,AK,99508,Anchorage,-149.840178,61.195786
434317,Charter College-Canyon Country,CA,91351,Canyon Country,-118.462007,34.408326
128780,Charter Oak State College,CT,6053,New Britain,-72.767972,41.688246
217828,Charzanne Beauty College,SC,29649,Greenwood,-82.136083,34.211969
201751,Chatfield College,OH,45118-9705,Saint Martin,-83.887153,39.210369
211556,Chatham University,PA,15232,Pittsburgh,-79.926083,40.448432
140331,Chattahoochee Technical College,GA,30060,Marietta,-84.552492,33.929093
101028,Chattahoochee Valley Community College,AL,36869,Phenix City,-85.031485,32.42391
220118,Chattanooga College Medical Dental and Technical Careers,TN,37411-3742,Chattanooga,-85.242075,35.022877
219824,Chattanooga State Community College,TN,37406-1097,Chattanooga,-85.237389,35.100202
240709,Cheeks International Academy of Beauty Culture-Cheyenne,WY,82001-4413,Cheyenne,-104.816671,41.13418
381699,Cheeks International Academy of Beauty Culture-Fort Collins,CO,80538,Loveland,-105.078151,40.445
381705,Cheeks International Academy of Beauty Culture-Greeley,CO,80631,Greeley,-104.696513,40.396777
208390,Chemeketa Community College,OR,97305,Salem,-122.977179,44.978206
189954,Cheryl Fells School of Business,NY,14304,Niagara Falls,-78.983878,43.106386
162168,Chesapeake College,MD,21679-0008,Wye Mills,-76.083118,38.95178
418427,Chester County Intermediate Unit,PA,19335,Downingtown,-75.685721,40.003528
211583,Chestnut Hill College,PA,19118-2693,Philadelphia,-75.228847,40.087048
417798,Cheveux School of Hair Design,NC,28540-9127,Jacksonville,-77.460879,34.831595
211608,Cheyney University of Pennsylvania,PA,19319-0200,Cheyney,-75.529378,39.932293
393180,Chicago ORT Technical Institute,IL,60077,Skokie,-87.76338,42.016472
475440,Chicago School for Piano Technology,IL,60612-1630,Chicago,-87.678011,41.8872
144005,Chicago State University,IL,60628-1598,Chicago,-87.610344,41.718813
144014,Chicago Theological Seminary,IL,60637,Chicago,-87.591301,41.786018
